SR_NUMBER,SR_TYPE,SR_SHORT_CODE,CREATED_DEPARTMENT,OWNER_DEPARTMENT,STATUS,ORIGIN,CREATED_DATE,LAST_MODIFIED_DATE,CLOSED_DATE,STREET_ADDRESS,CITY,STATE,ZIP_CODE,STREET_NUMBER,STREET_DIRECTION,STREET_NAME,STREET_TYPE,DUPLICATE,LEGACY_RECORD,LEGACY_SR_NUMBER,PARENT_SR_NUMBER,COMMUNITY_AREA,WARD,ELECTRICAL_DISTRICT,ELECTRICITY_GRID,POLICE_SECTOR,POLICE_DISTRICT,POLICE_BEAT,PRECINCT,SANITATION_DIVISION_DAYS,CREATED_HOUR,CREATED_DAY_OF_WEEK,CREATED_MONTH,X_COORDINATE,Y_COORDINATE,LATITUDE,LONGITUDE,LOCATION
SR22-02210991,Lead Inspection Request,HDF,,Health,Completed,Internet,12/30/2022 09:09:34 PM,02/23/2023 10:24:29 AM,02/23/2023 10:24:29 AM,1630 W COLUMBIA AVE,,,,1630,W,COLUMBIA,AVE,false,false,,,1,49,,L006,3,24,2432,28,,21,6,12,1163988.66982199,1944991.039312002,42.004692001,-87.672033,"(42.004692000940885, -87.6720330000019)"
SR22-02207583,Lead Inspection Request,HDF,,Health,Completed,Internet,12/30/2022 10:52:03 AM,02/16/2023 03:29:13 PM,02/16/2023 03:29:13 PM,1011 N LAWNDALE AVE,,,,1011,N,LAWNDALE,AVE,false,false,,,23,27,,G020,1,11,1112,29,,10,6,12,1151594.98468063,1906564.35712764,41.899500001,-87.718644,"(41.89950000094052, -87.71864400000192)"
SR22-02198400,Lead Inspection Request,HDF,311 City Services,Health,Completed,Phone Call,12/28/2022 07:00:06 PM,02/14/2023 01:18:51 PM,02/14/2023 01:18:51 PM,11500 S EGGLESTON AVE,,,,11500,S,EGGLESTON,AVE,false,false,,,53,21,,O050,2,05,0522,11,,19,4,12,1175343.080987269,1828630.243921145,41.685140736,-87.633747238,"(41.6851407362131, -87.6337472382559)"
SR22-02192848,Lead Inspection Request,HDF,311 City Services,Health,Completed,Phone Call,12/27/2022 07:27:40 PM,02/23/2023 10:28:23 AM,02/23/2023 10:28:23 AM,116 E 117TH PL,,,,116,E,117TH,PL,false,false,,,53,9,,Q050,3,05,0532,7,,19,3,12,1179156.541788237,1827119.061265829,41.680908001,-87.619833,"(41.680908000939716, -87.6198330000019)"
SR22-02180789,Lead Inspection Request,HDF,,Health,Completed,Internet,12/23/2022 10:23:50 PM,03/02/2023 10:54:35 AM,03/02/2023 10:54:35 AM,2856 S LOCK ST,,,,2856,S,LOCK,ST,false,false,,,60,11,,M028,1,09,0913,1,,22,6,12,1167349.295487826,1885281.948618142,41.840775001,-87.6613905,"(41.840775000940305, -87.6613905000019)"
SR22-02172547,Lead Inspection Request,HDF,311 City Services,Health,Completed,Phone Call,12/22/2022 08:25:55 AM,12/22/2022 09:40:56 AM,12/22/2022 09:40:56 AM,719 W 54TH PL,,,,719,W,54TH,PL,false,false,,,61,16,,O034,3,09,0935,6,,8,5,12,1172343.710922801,1868663.61424873,41.795064001,-87.6435525,"(41.79506400094014, -87.64355250000192)"
SR22-02172541,Lead Inspection Request,HDF,311 City Services,Health,Completed,Phone Call,12/22/2022 08:25:38 AM,12/22/2022 09:58:23 AM,12/22/2022 09:58:23 AM,719 W 54TH PL,,,,719,W,54TH,PL,false,false,,,61,16,,O034,3,09,0935,6,,8,5,12,1172343.710922801,1868663.61424873,41.795064001,-87.6435525,"(41.79506400094014, -87.64355250000192)"
SR22-02159081,Lead Inspection Request,HDF,,Health,Completed,Internet,12/19/2022 06:30:06 PM,12/21/2022 10:50:35 AM,12/21/2022 10:50:35 AM,4158 W MADISON ST,,,,4158,W,MADISON,ST,false,false,,,26,28,,F022,1,11,1115,24,,18,2,12,1148446.342489456,1899766.040015302,41.880906001,-87.7303845,"(41.88090600094048, -87.73038450000193)"
SR22-02157593,Lead Inspection Request,HDF,,Health,Completed,Internet,12/19/2022 02:11:51 PM,12/22/2022 09:14:03 AM,12/22/2022 09:14:03 AM,3816 N OAK PARK AVE,,,,3816,N,OAK PARK,AVE,false,false,,,17,38,,Y113,3,16,1632,38,,14,2,12,1130298.821724491,1924696.163108412,41.949648001,-87.796449,"(41.94964800094068, -87.79644900000191)"
SR22-02145793,Lead Inspection Request,HDF,,Health,Completed,Internet,12/16/2022 02:34:58 PM,12/23/2022 01:29:49 PM,12/23/2022 01:29:49 PM,7026 S CREGIER AVE,,,,7026,S,CREGIER,AVE,false,false,,,43,5,,U038,3,03,0332,28,,14,6,12,1189229.030533976,1858621.432033763,41.767119001,-87.5819565,"(41.76711900094008, -87.58195650000192)"
SR22-02139342,Lead Inspection Request,HDF,311 City Services,Health,Completed,Phone Call,12/15/2022 01:22:25 PM,12/22/2022 02:18:23 PM,12/22/2022 02:18:23 PM,4317 W 21ST PL,,,,4317,W,21ST,PL,false,false,,,29,24,,F026,1,10,1012,29,,13,5,12,1147846.523631662,1889332.267052543,41.852286001,-87.732855,"(41.85228600094034, -87.73285500000192)"
SR22-02122485,Lead Inspection Request,HDF,,Health,Completed,Internet,12/12/2022 02:58:32 PM,03/14/2023 07:59:47 AM,03/14/2023 07:59:47 AM,1618 W BRYN MAWR AVE,,,,1618,W,BRYN MAWR,AVE,false,false,,,77,40,,L008,1,20,2012,33,,14,2,12,1164403.815384783,1937339.07892289,41.983686001,-87.6707235,"(41.983686000940814, -87.6707235000019)"
SR22-02109774,Lead Inspection Request,HDF,311 City Services,Health,Completed,Phone Call,12/09/2022 01:09:05 PM,12/22/2022 09:29:48 AM,12/22/2022 09:29:48 AM,4865 W NEWPORT AVE,,,,4865,W,NEWPORT,AVE,false,false,,,15,31,,D014,3,16,1634,34,,13,6,12,1143078.947274152,1922408.445302898,41.943141001,-87.7495275,"(41.94314100094065, -87.74952750000192)"
SR22-02108052,Lead Inspection Request,HDF,311 City Services,Health,Completed,Phone Call,12/09/2022 09:48:32 AM,01/09/2023 10:49:19 AM,01/09/2023 10:49:19 AM,7038 S ST LAWRENCE AVE,,,,7038,S,ST LAWRENCE,AVE,false,false,,,69,6,,R038,2,03,0322,7,,9,6,12,1181376.766535042,1858311.447969741,41.766453001,-87.6107475,"(41.76645300094005, -87.6107475000019)"
SR22-02098669,Lead Inspection Request,HDF,311 City Services,Health,Completed,Phone Call,12/07/2022 02:40:10 PM,12/08/2022 10:23:23 AM,12/08/2022 10:23:23 AM,4025 N KEYSTONE AVE,,,,4025,N,KEYSTONE,AVE,false,false,,,16,39,,F012,2,17,1722,34,,14,4,12,1148667.830053863,1926589.550714335,41.954508001,-87.728877,"(41.95450800094071, -87.72887700000192)"
SR22-02082492,Lead Inspection Request,HDF,311 City Services,Health,Completed,Phone Call,12/05/2022 10:45:14 AM,01/09/2023 10:47:45 AM,01/09/2023 10:47:45 AM,427 N LAWLER AVE,,,,427,N,LAWLER,AVE,false,false,,,25,37,,D021,3,15,1532,39,,10,2,12,1142684.70660984,1902559.964639499,41.888682001,-87.7514715,"(41.888682000940484, -87.75147150000191)"
SR22-02077860,Lead Inspection Request,HDF,,Health,Completed,Internet,12/04/2022 10:04:05 AM,12/08/2022 09:45:23 AM,12/08/2022 09:45:23 AM,6080 N WHIPPLE ST,,,,6080,N,WHIPPLE,ST,false,false,,,2,50,,I007,1,24,2413,23,,10,1,12,1154838.049894918,1940523.906450511,41.992623001,-87.705819,"(41.99262300094085, -87.70581900000191)"
SR22-02076760,Lead Inspection Request,HDF,,Health,Completed,Internet,12/03/2022 08:03:29 PM,12/05/2022 09:54:09 AM,12/05/2022 09:54:09 AM,1755 W BELLE PLAINE AVE,,,,1755,W,BELLE PLAINE,AVE,false,false,,,6,47,,L012,1,19,1912,25,,20,7,12,1163899.48870811,1927210.332288661,41.955903001,-87.6728655,"(41.9559030009407, -87.6728655000019)"
SR22-02064039,Lead Inspection Request,HDF,,Health,Completed,Internet,12/01/2022 10:50:45 AM,12/08/2022 09:40:23 AM,12/08/2022 09:40:23 AM,8116 S EBERHART AVE,,,,8116,S,EBERHART,AVE,false,false,,,44,6,,R041,3,06,0631,45,,10,5,12,1180901.021612335,1851203.50802569,41.746959001,-87.6127095,"(41.746959000939974, -87.61270950000191)"
SR22-02055885,Lead Inspection Request,HDF,,Health,Completed,Mobile Device,11/29/2022 06:10:05 PM,11/30/2022 11:46:06 AM,11/30/2022 11:46:06 AM,1810 N SAYRE AVE,,,,1810,N,SAYRE,AVE,false,false,,,25,29,,Y118,1,25,2513,9,,18,3,11,1129191.954222222,1911327.609489595,41.912982001,-87.800823,"(41.912982000940545, -87.8008230000019)"
SR22-02044416,Lead Inspection Request,HDF,311 City Services,Health,Completed,Phone Call,11/28/2022 07:06:17 AM,12/02/2022 04:02:49 PM,12/02/2022 04:02:49 PM,315 N LOCKWOOD AVE,,,,315,N,LOCKWOOD,AVE,false,false,,,25,37,,C022,2,15,1523,11,,7,2,11,1141066.262164277,1901611.041984244,41.886108001,-87.7574385,"(41.886108000940474, -87.75743850000191)"
SR22-02035363,Lead Inspection Request,HDF,,Health,Completed,Internet,11/25/2022 12:40:55 PM,12/02/2022 01:05:09 PM,12/02/2022 01:05:09 PM,4317 W 21ST PL,,,,4317,W,21ST,PL,false,false,,,29,24,,F026,1,10,1012,29,,12,6,11,1147846.523631662,1889332.267052543,41.852286001,-87.732855,"(41.85228600094034, -87.73285500000192)"
SR22-02023250,Lead Inspection Request,HDF,311 City Services,Health,Completed,Phone Call,11/22/2022 02:00:55 PM,11/28/2022 11:55:32 AM,11/28/2022 11:55:32 AM,12033 S WALLACE ST,,,,12033,S,WALLACE,ST,false,false,,,53,34,,O051,2,05,0523,16,,14,3,11,1174551.811371541,1824943.018874861,41.675040001,-87.636753,"(41.67504000093969, -87.63675300000192)"
SR22-02004613,Lead Inspection Request,HDF,,Health,Completed,Mobile Device,11/18/2022 11:41:48 AM,11/28/2022 11:53:57 AM,11/28/2022 11:53:57 AM,1810 N SAYRE AVE,,,,1810,N,SAYRE,AVE,false,false,,,25,29,,Y118,1,25,2513,9,,11,6,11,1129191.954222222,1911327.609489595,41.912982001,-87.800823,"(41.912982000940545, -87.8008230000019)"
SR22-01993424,Lead Inspection Request,HDF,311 City Services,Health,Completed,Phone Call,11/16/2022 12:28:58 PM,11/16/2022 02:20:04 PM,11/16/2022 02:20:04 PM,7301 S FAIRFIELD AVE,,,,7301,S,FAIRFIELD,AVE,false,false,,,66,18,,J039,3,08,0835,47,,12,4,11,1159377.080149342,1856074.01038584,41.760792001,-87.691446,"(41.76079200094002, -87.6914460000019)"
SR22-01991909,Lead Inspection Request,HDF,311 City Services,Health,Completed,Phone Call,11/16/2022 08:48:16 AM,11/16/2022 10:57:12 AM,11/16/2022 10:57:12 AM,11330 S STEWART AVE,,,,11330,S,STEWART,AVE,false,false,,,49,34,,O049,3,22,2233,41,,8,4,11,1175578.371879072,1829634.747164155,41.687892001,-87.632856,"(41.68789200093976, -87.63285600000192)"
SR22-01989252,Lead Inspection Request,HDF,311 City Services,Health,Completed,Phone Call,11/15/2022 03:34:12 PM,11/17/2022 01:41:05 PM,11/17/2022 01:41:05 PM,7654 S MARQUETTE AVE,,,,7654,S,MARQUETTE,AVE,false,false,,,43,7,,W040,2,04,0421,12,,15,3,11,1195643.278909533,1854495.036682714,41.75563971,-87.558582328,"(41.75563970987126, -87.55858232824174)"
SR22-01977002,Lead Inspection Request,HDF,,Health,Completed,Internet,11/13/2022 11:59:39 AM,11/17/2022 02:04:20 PM,11/17/2022 02:04:20 PM,2638 W HADDON AVE,,,,2638,W,HADDON,AVE,false,false,,,24,1,,J020,1,12,1211,18,,11,1,11,1158430.865849366,1907614.669754226,41.902245001,-87.693507,"(41.90224500094052, -87.69350700000192)"
SR22-01973889,Lead Inspection Request,HDF,,Health,Completed,Mobile Device,11/12/2022 12:08:34 PM,11/17/2022 01:53:55 PM,11/17/2022 01:53:55 PM,523 E BOWEN AVE,,,,523,E,BOWEN,AVE,false,false,,,38,4,,R031,1,02,0214,18,,12,7,11,1180712.345010061,1877522.076782062,41.819184001,-87.6125925,"(41.81918400094024, -87.6125925000019)"
SR22-01965669,Lead Inspection Request,HDF,,Health,Completed,Internet,11/10/2022 02:48:32 PM,11/17/2022 01:55:42 PM,11/17/2022 01:55:42 PM,6757 S ST LAWRENCE AVE,,,,6757,S,ST LAWRENCE,AVE,false,false,,,42,20,,R038,2,03,0321,8,,14,5,11,1181478.201107424,1860119.449774028,41.771412001,-87.61032,"(41.77141200094005, -87.6103200000019)"
SR22-01962355,Lead Inspection Request,HDF,311 City Services,Health,Completed,Phone Call,11/10/2022 08:00:44 AM,11/17/2022 01:59:09 PM,11/17/2022 01:59:09 PM,12055 S STATE ST,,,,12055,S,STATE,ST,false,false,,,53,9,,Q051,3,05,0532,11,,8,5,11,1178553.268864457,1824844.518974062,41.674680001,-87.62211,"(41.674680000939716, -87.6221100000019)"
SR22-01953016,Lead Inspection Request,HDF,,Health,Completed,Alderman's Office,11/08/2022 01:24:19 PM,11/15/2022 12:17:58 PM,11/15/2022 12:17:58 PM,2016 W 23RD ST,,,,2016,W,23RD,ST,false,false,,,31,25,,K027,3,10,1034,1,,13,3,11,1163197.108375857,1888808.373698514,41.850540001,-87.6765285,"(41.85054000094035, -87.67652850000192)"
SR22-01952365,Lead Inspection Request,HDF,,Health,Completed,Mobile Device,11/08/2022 12:01:19 PM,11/17/2022 02:13:45 PM,11/17/2022 02:13:45 PM,8359 S MICHIGAN AVE,,,,8359,S,MICHIGAN,AVE,false,false,,,44,6,,Q042,3,06,0632,37,,12,3,11,1178709.183348574,1849387.955523393,41.742027001,-87.620796,"(41.74202700093996, -87.6207960000019)"
SR22-01949563,Lead Inspection Request,HDF,,Health,Completed,Internet,11/07/2022 09:53:48 PM,11/10/2022 11:24:53 AM,11/10/2022 11:24:53 AM,606 W CORNELIA AVE,,,,606,W,CORNELIA,AVE,false,false,,,6,46,,O014,2,19,1925,31,,21,2,11,1171502.190944446,1923718.096632114,41.946156001,-87.6450195,"(41.94615600094068, -87.64501950000191)"
SR22-01945842,Lead Inspection Request,HDF,311 City Services,Health,Completed,Phone Call,11/07/2022 12:18:37 PM,11/10/2022 11:12:12 AM,11/10/2022 11:12:12 AM,5611 N AUSTIN AVE,,,,5611,N,AUSTIN,AVE,false,false,,,11,45,,B007,2,16,1622,41,,12,2,11,1135307.958978079,1936997.694835617,41.983317001,-87.7777425,"(41.983317000940794, -87.77774250000192)"
SR22-01944823,Lead Inspection Request,HDF,311 City Services,Health,Completed,Phone Call,11/07/2022 10:42:42 AM,11/10/2022 10:52:17 AM,11/10/2022 10:52:17 AM,4848 W HENDERSON ST,,,,4848,W,HENDERSON,ST,false,false,,,15,31,,D014,3,16,1634,34,,10,2,11,1143240.805642709,1921857.099200324,41.941625029,-87.748946398,"(41.941625029191904, -87.74894639815865)"
SR22-01935000,Lead Inspection Request,HDF,311 City Services,Health,Completed,Phone Call,11/05/2022 11:30:37 AM,11/10/2022 10:35:26 AM,11/10/2022 10:35:26 AM,7117 S CHAMPLAIN AVE,,,,7117,S,CHAMPLAIN,AVE,false,false,,,69,6,,R039,2,03,0323,30,,11,7,11,1181874.030359702,1857869.583033447,41.765229001,-87.6089385,"(41.765229000940046, -87.6089385000019)"
SR22-01933211,Lead Inspection Request,HDF,,Health,Completed,Internet,11/04/2022 08:02:53 PM,11/07/2022 10:08:50 AM,11/07/2022 10:08:50 AM,6430 S VERNON AVE,,,,6430,S,VERNON,AVE,false,false,,,42,20,,R037,1,03,0312,10,,20,6,11,1180283.63941515,1862333.117259903,41.777514001,-87.614631,"(41.777514000940066, -87.6146310000019)"
SR22-01923444,Lead Inspection Request,HDF,,Health,Completed,Mobile Device,11/03/2022 10:23:55 AM,11/04/2022 01:30:37 PM,11/04/2022 01:30:37 PM,6714 S LANGLEY AVE,,,60637,6714,S,LANGLEY,AVE,false,false,,,42,20,,R038,2,03,0321,8,,10,5,11,1181975.880996,1860558.88461,41.772606358,-87.608482119,"(41.772606357865115, -87.60848211870452)"
SR22-01919475,Lead Inspection Request,HDF,,Health,Completed,Internet,11/02/2022 03:11:15 PM,11/04/2022 01:34:13 PM,11/04/2022 01:34:13 PM,2308 W 91ST ST,,,60620,2308,W,91ST,ST,false,false,,,72,19,,K043,2,22,2221,56,,15,4,11,1162522.88423,1844327.364827,41.728492421,-87.680243151,"(41.72849242112271, -87.68024315100419)"
SR22-01905336,Lead Inspection Request,HDF,,Health,Completed,Internet,10/31/2022 10:34:44 AM,11/01/2022 12:22:28 PM,11/01/2022 12:22:28 PM,10725 S CALUMET AVE,,,60628,10725,S,CALUMET,AVE,false,false,,,49,9,,Q048,1,05,0513,32,,10,2,10,1180561.489918,1833811.7211,41.69924156,-87.614485771,"(41.699241560377985, -87.61448577104139)"
SR22-01902928,Lead Inspection Request,HDF,311 City Services,Health,Completed,Phone Call,10/30/2022 08:27:27 PM,10/31/2022 02:22:37 PM,10/31/2022 02:22:37 PM,9245 S CLYDE AVE,,,60617,9245,S,CLYDE,AVE,false,false,,,48,7,,V044,1,04,0413,36,,20,1,10,1191935.766606,1843917.656242,41.726705239,-87.572511913,"(41.72670523900231, -87.57251191300278)"
SR22-01887678,Lead Inspection Request,HDF,,Health,Completed,Internet,10/27/2022 11:50:54 AM,10/31/2022 02:24:13 PM,10/31/2022 02:24:13 PM,123 N LECLAIRE AVE,,,60644,123,N,LECLAIRE,AVE,false,false,,,25,28,,D022,3,15,1532,43,,11,5,10,1142411.99001,1900311.338014,41.882516565,-87.752528921,"(41.882516564511064, -87.75252892053447)"
SR22-01887419,Lead Inspection Request,HDF,,Health,Completed,Internet,10/27/2022 11:09:45 AM,10/27/2022 12:48:07 PM,10/27/2022 12:48:07 PM,2030 N PULASKI RD,,,60639,2030,N,PULASKI,RD,false,false,,,20,26,,F017,2,25,2525,49,,11,5,10,1149311.126775,1913326.149211,41.918099622,-87.726857057,"(41.91809962189825, -87.72685705650058)"
SR22-01884385,Lead Inspection Request,HDF,311 City Services,Health,Completed,Phone Call,10/26/2022 05:13:44 PM,10/27/2022 10:41:57 AM,10/27/2022 10:41:57 AM,519 E 71ST ST,,,60619,519,E,71ST,ST,false,false,,,69,6,,R039,2,03,0323,7,,17,4,10,1181004.542853,1857986.372301,41.765569533,-87.612121817,"(41.76556953253174, -87.61212181687968)"
SR22-01881201,Lead Inspection Request,HDF,,Health,Completed,Internet,10/26/2022 10:23:16 AM,10/31/2022 09:26:46 AM,10/31/2022 09:26:46 AM,3938 N WHIPPLE ST,,,60618,3938,N,WHIPPLE,ST,false,false,,,16,33,,I013,3,17,1733,6,,10,4,10,1155271.004944,1926206.29755,41.953325962,-87.704612946,"(41.953325962109375, -87.70461294557336)"
SR22-01879937,Lead Inspection Request,HDF,311 City Services,Health,Completed,Phone Call,10/26/2022 07:18:16 AM,10/27/2022 10:34:59 AM,10/27/2022 10:34:59 AM,7300 S OGLESBY AVE,,,60649,7300,S,OGLESBY,AVE,false,false,,,43,7,,V039,3,03,0334,4,,7,4,10,1193060.326663,1856966.821913,41.762485924,-87.567967444,"(41.76248592365711, -87.56796744404585)"
SR22-01876164,Lead Inspection Request,HDF,,Health,Completed,Mobile Device,10/25/2022 01:01:44 PM,10/25/2022 01:16:11 PM,10/25/2022 01:16:11 PM,6013 S STATE ST,,,60621,6013,S,STATE,ST,false,false,,,40,20,,Q036,1,03,0311,23,,13,3,10,1177434.336305,1865067.088391,41.785081172,-87.624993918,"(41.78508117183191, -87.6249939182715)"
SR22-01857640,Lead Inspection Request,HDF,311 City Services,Health,Completed,Phone Call,10/21/2022 05:47:23 PM,10/25/2022 09:47:54 AM,10/25/2022 09:47:54 AM,4738 S INDIANA AVE,,,60615,4738,S,INDIANA,AVE,false,false,,,38,3,,Q033,2,02,0224,1,,17,6,10,1178392.486372,1873483.324548,41.808154401,-87.621225327,"(41.80815440092113, -87.62122532733609)"
SR22-01853847,Lead Inspection Request,HDF,,Health,Completed,Internet,10/21/2022 09:05:58 AM,10/21/2022 10:57:19 AM,10/21/2022 10:57:19 AM,2624 W FULLERTON AVE,,,60647,2624,W,FULLERTON,AVE,false,false,,,22,1,,J016,3,14,1431,41,,9,6,10,1158351.816612,1915862.908831,41.924880437,-87.693571367,"(41.92488043719654, -87.69357136658164)"
SR22-01848925,Lead Inspection Request,HDF,311 City Services,Health,Completed,Phone Call,10/20/2022 11:44:52 AM,10/21/2022 01:35:26 PM,10/21/2022 01:35:26 PM,4848 W HENDERSON ST,,,60641,4848,W,HENDERSON,ST,false,false,,,15,31,,D014,3,16,1634,34,,11,5,10,1143248.559632,1921838.083934,41.941572704,-87.748918375,"(41.9415727044575, -87.74891837520138)"
SR22-01836904,Lead Inspection Request,HDF,311 City Services,Health,Completed,Phone Call,10/18/2022 01:32:57 PM,10/21/2022 01:36:55 PM,10/21/2022 01:36:55 PM,2900 S STATE ST,,,60616,2900,S,STATE,ST,false,false,,,35,3,,P028,3,01,0133,18,,13,3,10,1176623.950006,1885675.637202,41.841651161,-87.627344373,"(41.84165116056492, -87.62734437349903)"
SR22-01832402,Lead Inspection Request,HDF,,Health,Completed,Internet,10/17/2022 07:27:48 PM,10/18/2022 09:28:31 AM,10/18/2022 09:28:31 AM,4454 S WESTERN AVE,,,60609,4454,S,WESTERN,AVE,false,false,,,58,15,,J032,2,09,0922,9,,19,2,10,1161008.978066,1874843.739246,41.812265104,-87.684946199,"(41.812265104440186, -87.68494619853351)"
SR22-01821112,Lead Inspection Request,HDF,311 City Services,Health,Completed,Phone Call,10/15/2022 03:48:32 PM,10/17/2022 01:19:23 PM,10/17/2022 01:19:23 PM,6037 S RACINE AVE,,,60636,6037,S,RACINE,AVE,false,false,,,68,16,,N036,1,07,0712,26,,15,7,10,1169424.937787,1864575.544437,41.783909629,-87.654374029,"(41.7839096293735, -87.65437402893014)"
SR22-01816845,Lead Inspection Request,HDF,311 City Services,Health,Completed,Phone Call,10/14/2022 03:58:14 PM,10/17/2022 02:25:08 PM,10/17/2022 02:25:08 PM,6426 S CARPENTER ST,,,60621,6426,S,CARPENTER,ST,false,false,,,68,16,,N037,2,07,0724,28,,15,6,10,1170347.552599,1862079.403891,41.777039881,-87.651063999,"(41.77703988097297, -87.65106399894655)"
SR22-01801872,Lead Inspection Request,HDF,,Health,Completed,Mobile Device,10/12/2022 11:32:35 AM,10/17/2022 01:21:06 PM,10/17/2022 01:21:06 PM,2522 N BERNARD ST,,,60647,2522,N,BERNARD,ST,false,false,,,22,35,,H016,1,14,1413,2,,11,4,10,1152867.644191,1916654.719776,41.927163743,-87.713701747,"(41.92716374325608, -87.71370174717296)"
SR22-01798466,Lead Inspection Request,HDF,311 City Services,Health,Completed,Phone Call,10/11/2022 06:01:11 PM,10/17/2022 01:24:58 PM,10/17/2022 01:24:58 PM,2240 W GRANVILLE AVE,,,60659,2240,W,GRANVILLE,AVE,false,false,,,2,50,,K007,1,24,2413,31,,18,3,10,1160058.141787,1941191.676101,41.994348817,-87.686599134,"(41.99434881663682, -87.68659913402234)"
SR22-01798221,Lead Inspection Request,HDF,,Health,Completed,Internet,10/11/2022 05:17:36 PM,10/19/2022 11:52:03 AM,10/19/2022 11:52:03 AM,1237 W GRANVILLE AVE,,,60660,1237,W,GRANVILLE,AVE,false,false,,,77,48,,M007,3,24,2433,25,,17,3,10,1166748.441418,1941235.286871,41.994327198,-87.661988074,"(41.99432719785998, -87.66198807353194)"
SR22-01793242,Lead Inspection Request,HDF,,Health,Completed,Mobile Device,10/11/2022 02:01:58 AM,10/17/2022 01:30:49 PM,10/17/2022 01:30:49 PM,2241 S HAMLIN AVE,,,60623,2241,S,HAMLIN,AVE,false,false,,,30,22,,G027,1,10,1013,19,,2,3,10,1151461.225677,1888674.913154,41.850412012,-87.719605134,"(41.85041201167304, -87.71960513448472)"
SR22-01775336,Lead Inspection Request,HDF,,Health,Completed,Internet,10/07/2022 10:27:46 AM,10/12/2022 11:02:57 AM,10/12/2022 11:02:57 AM,123 N LECLAIRE AVE,,,60644,123,N,LECLAIRE,AVE,false,false,,,25,28,,D022,3,15,1532,43,,10,6,10,1142411.99001,1900311.338014,41.882516565,-87.752528921,"(41.882516564511064, -87.75252892053447)"
SR22-01771811,Lead Inspection Request,HDF,311 City Services,Health,Completed,Phone Call,10/06/2022 05:34:12 PM,10/12/2022 10:53:17 AM,10/12/2022 10:53:17 AM,7947 S LAFLIN ST,,,60620,7947,S,LAFLIN,ST,false,false,,,71,21,,M041,1,06,0612,30,,17,5,10,1167803.186041,1851831.833123,41.748974201,-87.660685359,"(41.748974200897685, -87.66068535939804)"
SR22-01769219,Lead Inspection Request,HDF,311 City Services,Health,Completed,Phone Call,10/06/2022 12:28:48 PM,10/17/2022 01:50:47 PM,10/17/2022 01:50:47 PM,4921 N CENTRAL PARK AVE,,,60625,4921,N,CENTRAL PARK,AVE,false,false,,,14,33,,H010,1,17,1712,7,,12,5,10,1151578.143428,1932581.287683,41.97089291,-87.718020001,"(41.97089290954863, -87.7180200009322)"
SR22-01760186,Lead Inspection Request,HDF,,Health,Completed,Internet,10/05/2022 07:39:29 AM,10/05/2022 09:56:43 AM,10/05/2022 09:56:43 AM,405 N WABASH AVE,,,60611,405,N,WABASH,AVE,false,false,,,8,42,,Q021,3,18,1834,25,,7,4,10,1176901.595892,1903232.442224,41.889821884,-87.625794511,"(41.889821884408455, -87.62579451115606)"
SR22-01751106,Lead Inspection Request,HDF,,Health,Completed,Internet,10/03/2022 04:24:25 PM,10/04/2022 12:49:45 PM,10/04/2022 12:49:45 PM,1008 W LOYOLA AVE,,,60626,1008,W,LOYOLA,AVE,false,false,,,1,49,,N006,3,24,2432,7,,16,2,10,1168174.842107,1943983.507064,42.001837558,-87.656661283,"(42.00183755793622, -87.65666128255727)"
SR22-01749438,Lead Inspection Request,HDF,311 City Services,Health,Completed,Phone Call,10/03/2022 01:07:44 PM,10/17/2022 01:43:59 PM,10/17/2022 01:43:59 PM,3320 W 38TH PL,,,60632,3320,W,38TH,PL,false,false,,,58,12,,H030,1,09,0911,11,,13,2,10,1154744.156623,1878945.970345,41.823649579,-87.707816141,"(41.82364957893967, -87.70781614073196)"
SR22-01748142,Lead Inspection Request,HDF,,Health,Completed,Internet,10/03/2022 10:36:42 AM,10/04/2022 12:51:05 PM,10/04/2022 12:51:05 PM,2522 N BERNARD ST,,,60647,2522,N,BERNARD,ST,false,false,,,22,35,,H016,1,14,1413,2,,10,2,10,1152867.644191,1916654.719776,41.927163743,-87.713701747,"(41.92716374325608, -87.71370174717296)"
SR22-01733939,Lead Inspection Request,HDF,,Health,Completed,Internet,09/30/2022 12:13:10 PM,09/30/2022 01:45:33 PM,09/30/2022 01:45:33 PM,124 N LONG AVE,,,60644,124,N,LONG,AVE,false,false,,,25,28,,C022,2,15,1523,41,,12,6,9,1140206.952172,1900517.932917,41.883124153,-87.760620915,"(41.88312415256426, -87.76062091487668)"
SR22-01733505,Lead Inspection Request,HDF,311 City Services,Health,Completed,Phone Call,09/30/2022 11:07:23 AM,10/04/2022 12:52:55 PM,10/04/2022 12:52:55 PM,9173 S BURNSIDE AVE,,,60619,9173,S,BURNSIDE,AVE,false,false,,,49,9,,Q044,3,06,0633,23,,11,6,9,1180003.933543,1844304.945969,41.728049094,-87.616207274,"(41.72804909391911, -87.61620727386752)"
SR22-01727340,Lead Inspection Request,HDF,311 City Services,Health,Completed,Phone Call,09/29/2022 12:21:24 PM,10/04/2022 12:00:12 PM,10/04/2022 12:00:12 PM,1311 W 80TH ST,,,60620,1311,W,80TH,ST,false,false,,,71,21,,M041,1,06,0612,28,,12,5,9,1168915.841457,1851669.695634,41.748505332,-87.656612839,"(41.74850533168578, -87.65661283862)"
SR22-01716414,Lead Inspection Request,HDF,311 City Services,Health,Completed,Phone Call,09/27/2022 05:01:09 PM,10/17/2022 02:16:08 PM,10/17/2022 02:16:08 PM,7729 S CARPENTER ST,,,60620,7729,S,CARPENTER,ST,true,false,,SR22-01715914,71,17,,N040,1,06,0612,22,,17,3,9,1170740.505548,1853454.138974,41.753362506,-87.649874689,"(41.75336250595388, -87.64987468931149)"
SR22-01715914,Lead Inspection Request,HDF,311 City Services,Health,Completed,Phone Call,09/27/2022 03:52:04 PM,10/17/2022 02:16:08 PM,10/17/2022 02:16:08 PM,7701 S ABERDEEN ST,,,60620,7701,S,ABERDEEN,ST,false,false,,,71,17,,N040,1,06,0612,24,,15,3,9,1170398.891577,1853705.538896,41.754059821,-87.651119271,"(41.75405982060698, -87.65111927121045)"
SR22-01707847,Lead Inspection Request,HDF,,Health,Completed,Internet,09/26/2022 02:08:05 PM,09/27/2022 03:39:22 PM,09/27/2022 03:39:22 PM,1008 W LOYOLA AVE,,,60626,1008,W,LOYOLA,AVE,false,false,,,1,49,,N006,3,24,2432,7,,14,2,9,1168174.842107,1943983.507064,42.001837558,-87.656661283,"(42.00183755793622, -87.65666128255727)"
SR22-01704884,Lead Inspection Request,HDF,,Health,Completed,Internet,09/26/2022 09:12:35 AM,09/26/2022 10:50:49 AM,09/26/2022 10:50:49 AM,1635 N SPRINGFIELD AVE,,,60647,1635,N,SPRINGFIELD,AVE,false,false,,,23,26,,G018,3,25,2535,47,,9,2,9,1150190.142863,1910760.637202,41.911042512,-87.723694475,"(41.91104251230555, -87.72369447450941)"
SR22-01701214,Lead Inspection Request,HDF,,Health,Completed,Internet,09/25/2022 11:51:07 AM,09/26/2022 09:14:23 AM,09/26/2022 09:14:23 AM,1723 E 68TH ST,,,60649,1723,E,68TH,ST,false,false,,,43,5,,U038,3,03,0332,17,,11,1,9,1188929.049823,1860184.927806,41.77141655,-87.58300604,"(41.77141654993028, -87.58300604046585)"
SR22-01698493,Lead Inspection Request,HDF,,Health,Completed,Internet,09/24/2022 03:51:38 PM,09/26/2022 03:19:55 PM,09/26/2022 03:19:55 PM,1547 S SAINT LOUIS AVE,,,60623,1547,S,SAINT LOUIS,AVE,false,false,,,29,24,,H025,2,10,1021,13,,15,7,9,1153371.782835,1891991.486154,41.859475392,-87.712504987,"(41.85947539208105, -87.71250498675731)"
SR22-01681018,Lead Inspection Request,HDF,311 City Services,Health,Completed,Phone Call,09/21/2022 04:24:24 PM,09/23/2022 09:47:11 AM,09/23/2022 09:47:11 AM,1610 W SUNNYSIDE AVE,,,60640,1610,W,SUNNYSIDE,AVE,false,false,,,3,47,,L011,1,19,1912,34,,16,4,9,1164705.381035,1929963.899076,41.963441827,-87.669824481,"(41.96344182716049, -87.66982448109026)"
SR22-01679962,Lead Inspection Request,HDF,311 City Services,Health,Completed,Phone Call,09/21/2022 02:17:42 PM,09/26/2022 03:17:19 PM,09/26/2022 03:17:19 PM,7729 S CARPENTER ST,,,60620,7729,S,CARPENTER,ST,false,false,,,71,17,,N040,1,06,0612,22,,14,4,9,1170740.505548,1853454.138974,41.753362506,-87.649874689,"(41.75336250595388, -87.64987468931149)"
SR22-01676320,Lead Inspection Request,HDF,,Health,Completed,Mobile Device,09/21/2022 05:03:40 AM,09/21/2022 09:07:37 AM,09/21/2022 09:07:37 AM,9900 S VINCENNES AVE,,,60643,9900,S,VINCENNES,AVE,false,false,,,73,34,,M046,1,22,2213,49,,5,4,9,1169893.597573,1839107.713106,41.714012286,-87.653393627,"(41.71401228563519, -87.65339362716622)"
SR22-01668082,Lead Inspection Request,HDF,311 City Services,Health,Completed,Phone Call,09/19/2022 08:45:28 PM,09/20/2022 09:32:19 AM,09/20/2022 09:32:19 AM,7000 S WOOD ST,,,60636,7000,S,WOOD,ST,false,false,,,67,17,,L038,3,07,0735,31,,20,2,9,1165497.764101,1858221.806445,41.76655833,-87.668952487,"(41.76655832973406, -87.66895248675972)"
SR22-01663230,Lead Inspection Request,HDF,311 City Services,Health,Completed,Phone Call,09/19/2022 10:29:49 AM,09/19/2022 12:28:15 PM,09/19/2022 12:28:15 PM,7046 S VERNON AVE,,,60637,7046,S,VERNON,AVE,false,false,,,69,6,,R038,2,03,0322,7,,10,2,9,1180395.494348,1858185.034218,41.766128673,-87.61434807,"(41.766128673344944, -87.61434807025893)"
SR22-01655240,Lead Inspection Request,HDF,,Health,Completed,Internet,09/17/2022 12:19:10 PM,09/22/2022 09:57:12 AM,09/22/2022 09:57:12 AM,11655 S LOWE AVE,,,60628,11655,S,LOWE,AVE,false,false,,,53,34,,O050,2,05,0524,33,,12,7,9,1174120.096739,1827654.654036,41.682490729,-87.638253081,"(41.682490729249515, -87.63825308102705)"
SR22-01644911,Lead Inspection Request,HDF,,Health,Completed,Internet,09/15/2022 04:25:31 PM,09/16/2022 09:57:20 AM,09/16/2022 09:57:20 AM,415 N CENTRAL PARK BLVD,,,60624,415,N,CENTRAL PARK,BLVD,false,false,,,23,27,,G021,2,11,1123,23,,16,5,9,1152282.032387,1902636.170383,41.888707127,-87.716224236,"(41.88870712744645, -87.71622423621106)"
SR22-01643584,Lead Inspection Request,HDF,,Health,Completed,Internet,09/15/2022 02:02:54 PM,09/16/2022 09:50:25 AM,09/16/2022 09:50:25 AM,6030 N SHERIDAN RD,,,60660,6030,N,SHERIDAN,RD,false,false,,,77,48,,N007,3,24,2433,31,,14,5,9,1168422.106897,1940340.038277,41.991834448,-87.65585768,"(41.99183444788362, -87.6558576799465)"
SR22-01635964,Lead Inspection Request,HDF,,Health,Completed,Internet,09/14/2022 01:14:14 PM,09/14/2022 02:12:29 PM,09/14/2022 02:12:29 PM,4841 W ROSCOE ST,,,60641,4841,W,ROSCOE,ST,false,false,,,15,31,,D014,3,16,1634,34,,13,4,9,1143323.913361,1922024.951699,41.942084077,-87.748636731,"(41.94208407701815, -87.74863673143447)"
SR22-01587766,Lead Inspection Request,HDF,,Health,Completed,Internet,09/07/2022 11:27:58 AM,09/12/2022 01:05:09 PM,09/12/2022 01:05:09 PM,3848 W 83RD PL,,,60652,3848,W,83RD,PL,false,false,,,70,18,,G042,3,08,0834,11,,11,4,9,1151995.893409,1848997.788696,41.741521602,-87.718684004,"(41.74152160156714, -87.71868400397089)"
SR22-01569597,Lead Inspection Request,HDF,,Health,Completed,Internet,09/04/2022 11:44:52 AM,09/06/2022 10:25:13 AM,09/06/2022 10:25:13 AM,4951 W WALTON ST,,,60651,4951,W,WALTON,ST,false,false,,,25,37,,D020,3,15,1531,20,,11,1,9,1142969.277936,1905712.871674,41.897328649,-87.750347762,"(41.8973286493213, -87.75034776237531)"
SR22-01564924,Lead Inspection Request,HDF,,Health,Completed,spot-open311-Chicago+Works,09/03/2022 09:50:54 AM,09/06/2022 10:04:05 AM,09/06/2022 10:04:05 AM,552 E 80TH ST,Chicago,IL,60619,552,E,80TH,ST,false,false,,,44,6,,R041,2,06,0624,42,,9,7,9,1181529.006443,1852099.062725,41.749402047,-87.610380847,"(41.749402046941796, -87.6103808472288)"
SR22-01556362,Lead Inspection Request,HDF,311 City Services,Health,Completed,Phone Call,09/01/2022 07:31:11 PM,09/04/2022 01:16:04 PM,09/04/2022 01:16:04 PM,4748 N HARDING AVE,,,60625,4748,N,HARDING,AVE,false,false,,,14,35,,G011,2,17,1723,30,,19,5,9,1149075.281354,1931464.63652,41.967877699,-87.727252374,"(41.96787769940952, -87.72725237399624)"
SR22-01551602,Lead Inspection Request,HDF,,Health,Completed,Internet,09/01/2022 09:20:49 AM,09/02/2022 09:26:06 AM,09/02/2022 09:26:06 AM,5935 N RAVENSWOOD AVE,,,60660,5935,N,RAVENSWOOD,AVE,false,false,,,77,40,,L008,1,20,2012,36,,9,5,9,1163421.314623,1939407.337732,41.989382172,-87.674278427,"(41.98938217213938, -87.67427842673065)"
SR22-01549550,Lead Inspection Request,HDF,,Health,Completed,Internet,08/31/2022 08:41:46 PM,09/02/2022 12:18:36 PM,09/02/2022 12:18:36 PM,3445 S RHODES AVE,,,60616,3445,S,RHODES,AVE,false,false,,,35,4,,R029,1,02,0211,36,,20,4,8,1180613.627357,1882023.233911,41.831537786,-87.612816154,"(41.83153778607045, -87.61281615434632)"
SR22-01548821,Lead Inspection Request,HDF,,Health,Completed,Internet,08/31/2022 05:40:51 PM,09/02/2022 10:31:22 AM,09/02/2022 10:31:22 AM,1929 S HALSTED ST,,,60608,1929,S,HALSTED,ST,false,false,,,31,11,,O026,3,12,1235,3,,17,4,8,1171420.768516,1890798.208547,41.855823702,-87.64628784,"(41.85582370234578, -87.64628783995086)"
SR22-01538824,Lead Inspection Request,HDF,,Health,Completed,Internet,08/30/2022 12:23:09 PM,08/31/2022 10:44:53 AM,08/31/2022 10:44:53 AM,11023 S DR MARTIN LUTHER KING JR DR,,,60628,11023,S,DR MARTIN LUTHER KING JR,DR,false,false,,,49,9,,R048,1,05,0513,38,,12,3,8,1180880.551644,1831875.245907,41.693920293,-87.613376788,"(41.693920293171665, -87.61337678777517)"
SR22-01524118,Lead Inspection Request,HDF,,Health,Completed,Internet,08/28/2022 09:14:27 AM,08/31/2022 11:07:03 AM,08/31/2022 11:07:03 AM,3816 N OAK PARK AVE,,,60634,3816,N,OAK PARK,AVE,false,false,,,17,38,,Y113,3,16,1632,38,,9,1,8,1130298.581063,1924696.724413,41.949649545,-87.796449872,"(41.94964954536049, -87.79644987173425)"
SR22-01523081,Lead Inspection Request,HDF,,Health,Completed,Internet,08/27/2022 11:41:49 PM,08/29/2022 12:54:04 PM,08/29/2022 12:54:04 PM,2241 W DEVON AVE,,,60659,2241,W,DEVON,AVE,false,false,,,2,50,,K007,1,24,2413,31,,23,7,8,1160047.820301,1942369.110108,41.997579951,-87.68660439,"(41.9975799513271, -87.6866043899103)"
SR22-01519430,Lead Inspection Request,HDF,311 City Services,Health,Completed,Phone Call,08/27/2022 09:32:15 AM,08/31/2022 11:00:49 AM,08/31/2022 11:00:49 AM,1007 N LAVERGNE AVE,,,60651,1007,N,LAVERGNE,AVE,true,false,,SR22-01519423,25,37,,D020,3,15,1531,20,,9,7,8,1142897.961946,1906306.262427,41.898958312,-87.750594896,"(41.89895831153868, -87.75059489628482)"
SR22-01519423,Lead Inspection Request,HDF,311 City Services,Health,Completed,Phone Call,08/27/2022 09:30:42 AM,08/31/2022 11:00:49 AM,08/31/2022 11:00:49 AM,1007 N LAVERGNE AVE,,,60651,1007,N,LAVERGNE,AVE,false,false,,,25,37,,D020,3,15,1531,20,,9,7,8,1142897.961946,1906306.262427,41.898958312,-87.750594896,"(41.89895831153868, -87.75059489628482)"
SR22-01510748,Lead Inspection Request,HDF,,Health,Completed,spot-open311-Chicago+Works,08/25/2022 03:42:22 PM,08/26/2022 10:19:58 AM,08/26/2022 10:19:58 AM,4110 N DAMEN AVE,Chicago,IL,60618,4110,N,DAMEN,AVE,false,false,,,5,47,,K012,1,19,1911,12,,15,5,8,1162205.754102,1927382.365225,41.956410719,-87.679087222,"(41.95641071907759, -87.67908722181461)"
SR22-01510727,Lead Inspection Request,HDF,,Health,Completed,spot-open311-Chicago+Works,08/25/2022 03:40:00 PM,08/26/2022 10:18:48 AM,08/26/2022 10:18:48 AM,4110 N DAMEN AVE,Chicago,IL,60618,4110,N,DAMEN,AVE,false,false,,,5,47,,K012,1,19,1911,12,,15,5,8,1162205.754102,1927382.365225,41.956410719,-87.679087222,"(41.95641071907759, -87.67908722181461)"
SR22-01504288,Lead Inspection Request,HDF,311 City Services,Health,Completed,Phone Call,08/24/2022 04:24:13 PM,08/25/2022 09:35:07 AM,08/25/2022 09:35:07 AM,26 E 101ST ST,,,60628,26,E,101ST,ST,false,false,,,49,9,,Q046,1,05,0511,2,,16,4,8,1178317.41181,1838093.960416,41.711043723,-87.622573114,"(41.71104372287734, -87.62257311370944)"
SR22-01502355,Lead Inspection Request,HDF,,Health,Completed,Internet,08/24/2022 12:28:18 PM,08/25/2022 02:34:34 PM,08/25/2022 02:34:34 PM,2535 S SAINT LOUIS AVE,,,60623,2535,S,SAINT LOUIS,AVE,false,false,,,30,22,,H027,2,10,1024,18,,12,4,8,1153511.377567,1886782.372993,41.8451782,-87.7121309,"(41.845178200050995, -87.71213090026174)"
SR22-01498693,Lead Inspection Request,HDF,,Health,Completed,Internet,08/23/2022 08:23:08 PM,08/24/2022 10:16:30 AM,08/24/2022 10:16:30 AM,7360 N DAMEN AVE,,,60645,7360,N,DAMEN,AVE,false,false,,,1,49,,K004,2,24,2424,19,,20,3,8,1161580.395654,1949012.937244,42.015778893,-87.68078033,"(42.01577889312183, -87.68078033030375)"
SR22-01494268,Lead Inspection Request,HDF,311 City Services,Health,Completed,Phone Call,08/23/2022 10:18:37 AM,08/24/2022 11:17:08 AM,08/24/2022 11:17:08 AM,9105 S MARSHFIELD AVE,,,60620,9105,S,MARSHFIELD,AVE,false,false,,,73,21,,L044,2,22,2221,14,,10,3,8,1167027.48117,1844266.045086,41.728229177,-87.663743546,"(41.72822917744687, -87.66374354622667)"
SR22-01476735,Lead Inspection Request,HDF,,Health,Completed,Internet,08/19/2022 08:51:40 PM,08/22/2022 01:47:56 PM,08/22/2022 01:47:56 PM,719 N WABASH AVE,,,60611,719,N,WABASH,AVE,true,false,,SR22-01476726,8,42,,Q021,3,18,1834,23,,20,6,8,1176612.871929,1905319.32902,41.895554937,-87.626791711,"(41.89555493664596, -87.62679171073339)"
SR22-01476726,Lead Inspection Request,HDF,,Health,Completed,Internet,08/19/2022 08:46:29 PM,08/22/2022 01:47:56 PM,08/22/2022 01:47:56 PM,719 N WABASH AVE,,,60611,719,N,WABASH,AVE,false,false,,,8,42,,Q021,3,18,1834,23,,20,6,8,1176612.871929,1905319.32902,41.895554937,-87.626791711,"(41.89555493664596, -87.62679171073339)"
SR22-01469251,Lead Inspection Request,HDF,,Health,Completed,Mobile Device,08/18/2022 06:59:06 PM,08/19/2022 01:33:28 PM,08/19/2022 01:33:28 PM,1363 W GREENLEAF AVE,,,60626,1363,W,GREENLEAF,AVE,false,false,,,1,49,,M005,2,24,2423,29,,18,5,8,1165895.948346,1946872.096359,42.009813017,-87.664962047,"(42.00981301661007, -87.66496204656234)"
SR22-01455723,Lead Inspection Request,HDF,311 City Services,Health,Completed,Phone Call,08/16/2022 09:12:53 PM,08/18/2022 10:21:28 AM,08/18/2022 10:21:28 AM,4625 S EVANS AVE,,,60653,4625,S,EVANS,AVE,false,false,,,38,4,,R032,2,02,0221,12,,21,3,8,1182112.385133,1874379.422123,41.810527974,-87.607554042,"(41.810527974432844, -87.60755404155296)"
SR22-01453442,Lead Inspection Request,HDF,311 City Services,Health,Completed,Phone Call,08/16/2022 02:54:39 PM,08/18/2022 10:20:16 AM,08/18/2022 10:20:16 AM,721 W 19TH PL,,,60616,721,W,19TH,PL,false,false,,,31,11,,O026,3,12,1235,3,,14,3,8,1171613.892831,1890797.537426,41.855817618,-87.645579004,"(41.855817618108226, -87.64557900368533)"
SR22-01421607,Lead Inspection Request,HDF,311 City Services,Health,Completed,Phone Call,08/11/2022 09:07:35 AM,08/15/2022 12:38:16 PM,08/15/2022 12:38:16 PM,12030 S PRINCETON AVE,,,60628,12030,S,PRINCETON,AVE,false,false,,,53,34,,P051,2,05,0523,16,,9,5,8,1176373.520626,1825022.768235,41.67521824,-87.630082862,"(41.6752182396347, -87.6300828616205)"
SR22-01419461,Lead Inspection Request,HDF,,Health,Completed,Mobile Device,08/10/2022 08:42:29 PM,08/15/2022 12:55:06 PM,08/15/2022 12:55:06 PM,7227 S UNIVERSITY AVE,,,60619,7227,S,UNIVERSITY,AVE,false,false,,,69,5,,S039,2,03,0324,2,,20,4,8,1185214.870774,1857201.882639,41.763318908,-87.596714407,"(41.76331890824434, -87.59671440746294)"
SR22-01418959,Lead Inspection Request,HDF,,Health,Completed,Internet,08/10/2022 06:48:00 PM,08/11/2022 09:13:33 AM,08/11/2022 09:13:33 AM,5432 S KIMBARK AVE,,,60615,5432,S,KIMBARK,AVE,false,false,,,41,5,,T034,3,02,0234,3,,18,4,8,1185481.336486,1869457.438295,41.796942944,-87.595352272,"(41.79694294412001, -87.59535227180967)"
SR22-01417642,Lead Inspection Request,HDF,311 City Services,Health,Completed,Phone Call,08/10/2022 03:28:57 PM,08/11/2022 10:44:26 AM,08/11/2022 10:44:26 AM,8266 S ANTHONY AVE,,,60617,8266,S,ANTHONY,AVE,false,false,,,45,8,,U041,1,04,0414,30,,15,4,8,1189915.359109,1850437.358829,41.744644705,-87.579703644,"(41.744644704693314, -87.57970364439034)"
SR22-01414699,Lead Inspection Request,HDF,,Health,Completed,Internet,08/10/2022 10:25:33 AM,08/12/2022 10:02:09 AM,08/12/2022 10:02:09 AM,3311 N HARDING AVE,,,60618,3311,N,HARDING,AVE,false,false,,,21,30,,G014,3,17,1732,8,,10,4,8,1149559.553118,1921791.252142,41.941323784,-87.725723913,"(41.941323784321796, -87.72572391258215)"
SR22-01411842,Lead Inspection Request,HDF,,Health,Completed,Mobile Device,08/09/2022 09:02:15 PM,08/12/2022 09:55:19 AM,08/12/2022 09:55:19 AM,1363 W GREENLEAF AVE,,,60626,1363,W,GREENLEAF,AVE,false,false,,,1,49,,M005,2,24,2423,29,,21,3,8,1165895.948346,1946872.096359,42.009813017,-87.664962047,"(42.00981301661007, -87.66496204656234)"
SR22-01410470,Lead Inspection Request,HDF,,Health,Completed,Internet,08/09/2022 04:43:49 PM,08/12/2022 09:56:36 AM,08/12/2022 09:56:36 AM,5611 N AUSTIN AVE,,,60646,5611,N,AUSTIN,AVE,false,false,,,11,45,,B007,2,16,1622,41,,16,3,8,1135307.758899,1936998.580483,41.983319435,-87.777743215,"(41.98331943479561, -87.77774321473873)"
SR22-01407342,Lead Inspection Request,HDF,,Health,Completed,Internet,08/09/2022 11:10:41 AM,08/10/2022 09:46:13 AM,08/10/2022 09:46:13 AM,9139 S COMMERCIAL AVE,,,60617,9139,S,COMMERCIAL,AVE,false,false,,,46,10,,X044,2,04,0424,36,,11,3,8,1197846.141914,1844773.938563,41.728909559,-87.550833496,"(41.72890955895007, -87.5508334956126)"
SR22-01406074,Lead Inspection Request,HDF,311 City Services,Health,Completed,Phone Call,08/09/2022 08:46:59 AM,08/09/2022 10:12:14 AM,08/09/2022 10:12:14 AM,7234 S JEFFERY BLVD,,,60649,7234,S,JEFFERY,BLVD,false,false,,,43,5,,U039,3,03,0333,6,,8,3,8,1190716.657752,1857244.639882,41.763305181,-87.576548226,"(41.7633051806745, -87.57654822619321)"
SR22-01402996,Lead Inspection Request,HDF,,Health,Completed,Internet,08/08/2022 05:12:36 PM,08/10/2022 10:30:33 AM,08/10/2022 10:30:33 AM,1369 E HYDE PARK BLVD,,,60615,1369,E,HYDE PARK,BLVD,false,false,,,41,4,,T034,3,02,0234,1,,17,2,8,1186312.142049,1871389.046258,41.802223809,-87.592244587,"(41.80222380855526, -87.5922445872406)"
SR22-01401003,Lead Inspection Request,HDF,,Health,Completed,Alderman's Office,08/08/2022 01:40:26 PM,08/12/2022 09:02:23 AM,08/12/2022 09:02:23 AM,2107 W COULTER ST,,,60608,2107,W,COULTER,ST,false,false,,,31,25,,K027,3,10,1034,26,,13,2,8,1162668.123255,1887940.155223,41.848168608,-87.678494273,"(41.84816860757634, -87.67849427320033)"
SR22-01397299,Lead Inspection Request,HDF,311 City Services,Health,Completed,Phone Call,08/08/2022 04:04:55 AM,08/12/2022 09:52:45 AM,08/12/2022 09:52:45 AM,4519 S MICHIGAN AVE,,,60653,4519,S,MICHIGAN,AVE,false,false,,,38,3,,Q032,1,02,0215,15,,4,2,8,1178039.144707,1875059.638629,41.812487972,-87.622473465,"(41.81248797230861, -87.62247346461841)"
SR22-01395054,Lead Inspection Request,HDF,,Health,Completed,Mobile Device,08/07/2022 01:56:31 PM,08/10/2022 10:27:21 AM,08/10/2022 10:27:21 AM,5024 W OHIO ST,,,60644,5024,W,OHIO,ST,false,false,,,25,37,,D021,3,15,1532,34,,13,1,8,1142621.663462,1903584.912856,41.891495754,-87.751677506,"(41.891495754496944, -87.75167750591213)"
SR22-01370491,Lead Inspection Request,HDF,,Health,Completed,Internet,08/03/2022 12:46:27 PM,08/10/2022 10:26:04 AM,08/10/2022 10:26:04 AM,3312 N HARDING AVE,,,60618,3312,N,HARDING,AVE,false,false,,,21,30,,G014,3,17,1732,8,,12,4,8,1149404.837531,1921810.038347,41.941378343,-87.726292069,"(41.94137834310945, -87.72629206875119)"
SR22-01362785,Lead Inspection Request,HDF,,Health,Completed,Internet,08/02/2022 11:46:10 AM,08/03/2022 09:50:15 AM,08/03/2022 09:50:15 AM,3901 W 82ND ST,,,60652,3901,W,82ND,ST,false,false,,,70,18,,G041,3,08,0834,11,,11,3,8,1151762.094045,1849827.560046,41.743803218,-87.719518959,"(41.743803218150155, -87.71951895926884)"
SR22-01362695,Lead Inspection Request,HDF,,Health,Completed,Mobile Device,08/02/2022 11:33:52 AM,08/08/2022 08:57:57 AM,08/08/2022 08:57:57 AM,5627 N KEYSTONE AVE,,,60646,5627,N,KEYSTONE,AVE,false,false,,,13,39,,F008,1,17,1711,39,,11,3,8,1148450.731692,1937196.406081,41.983618164,-87.72940023,"(41.9836181636561, -87.72940023035147)"
SR22-01352305,Lead Inspection Request,HDF,,Health,Completed,Mobile Device,08/01/2022 03:02:55 AM,08/03/2022 09:52:20 AM,08/03/2022 09:52:20 AM,4184 N ELSTON AVE,,,60618,4184,N,ELSTON,AVE,false,false,,,16,39,,G012,2,17,1723,28,,3,2,8,1149886.7707,1927509.675015,41.957009211,-87.724371919,"(41.95700921134189, -87.72437191939179)"
SR22-01347674,Lead Inspection Request,HDF,311 City Services,Health,Completed,Phone Call,07/31/2022 08:08:24 AM,08/03/2022 09:41:12 AM,08/03/2022 09:41:12 AM,906 W 77TH ST,,,60620,906,W,77TH,ST,false,false,,,71,17,,N040,2,06,0621,2,,8,1,7,1171546.10834,1853793.078963,41.754275002,-87.646912549,"(41.75427500176619, -87.64691254876277)"
SR22-01338294,Lead Inspection Request,HDF,311 City Services,Health,Completed,Phone Call,07/29/2022 02:50:45 PM,08/02/2022 01:07:08 PM,08/02/2022 01:07:08 PM,5040 W ADAMS ST,,,60644,5040,W,ADAMS,ST,false,false,,,25,28,,D023,3,15,1533,12,,14,6,7,1142811.344414,1898944.765114,41.878759093,-87.751096508,"(41.8787590929945, -87.75109650818372)"
SR22-01333013,Lead Inspection Request,HDF,,Health,Completed,Internet,07/28/2022 09:17:23 PM,08/02/2022 09:31:01 AM,08/02/2022 09:31:01 AM,749 E 65TH ST,,,60637,749,E,65TH,ST,true,false,,SR22-01332989,42,20,,R037,2,03,0321,18,,21,5,7,1182570.892763,1862031.566784,41.776633756,-87.606255352,"(41.77663375623702, -87.60625535177883)"
SR22-01333002,Lead Inspection Request,HDF,,Health,Completed,Internet,07/28/2022 09:13:03 PM,08/02/2022 09:31:01 AM,08/02/2022 09:31:01 AM,749 E 65TH ST,,,60637,749,E,65TH,ST,true,false,,SR22-01332989,42,20,,R037,2,03,0321,18,,21,5,7,1182570.892763,1862031.566784,41.776633756,-87.606255352,"(41.77663375623702, -87.60625535177883)"
SR22-01332989,Lead Inspection Request,HDF,,Health,Completed,Internet,07/28/2022 09:09:34 PM,08/02/2022 09:31:01 AM,08/02/2022 09:31:01 AM,749 E 65TH ST,,,60637,749,E,65TH,ST,false,false,,,42,20,,R037,2,03,0321,18,,21,5,7,1182570.892763,1862031.566784,41.776633756,-87.606255352,"(41.77663375623702, -87.60625535177883)"
SR22-01321310,Lead Inspection Request,HDF,,Health,Completed,Internet,07/27/2022 02:20:25 PM,09/30/2022 01:42:26 PM,08/02/2022 12:28:53 PM,1929 W EVERGREEN AVE,,,60622,1929,W,EVERGREEN,AVE,false,false,,,24,1,,L019,2,14,1424,11,,14,4,7,1163389.887266,1909094.027091,41.906201528,-87.675250094,"(41.90620152825649, -87.67525009387904)"
SR22-01313816,Lead Inspection Request,HDF,311 City Services,Health,Completed,Phone Call,07/26/2022 03:02:54 PM,08/02/2022 09:39:09 AM,08/02/2022 09:39:09 AM,6841 W ADDISON ST,,,60634,6841,W,ADDISON,ST,false,false,,,17,38,,Y114,3,16,1632,4,,15,3,7,1130001.744579,1923090.828313,41.945247881,-87.797577925,"(41.94524788096873, -87.7975779253639)"
SR22-01305047,Lead Inspection Request,HDF,311 City Services,Health,Completed,Phone Call,07/25/2022 03:10:25 PM,09/12/2022 10:08:10 AM,09/12/2022 10:08:10 AM,10655 S CHAMPLAIN AVE,,,60628,10655,S,CHAMPLAIN,AVE,false,false,,,50,9,,R047,1,05,0512,8,,15,2,7,1182570.756818,1834277.578358,41.700473679,-87.60711442,"(41.700473678750406, -87.6071144198012)"
SR22-01297945,Lead Inspection Request,HDF,,Health,Completed,Mobile Device,07/24/2022 04:46:04 PM,09/07/2022 10:56:08 AM,09/07/2022 10:56:08 AM,2849 N HAMLIN AVE,,,60618,2849,N,HAMLIN,AVE,false,false,,,21,30,,G015,2,25,2523,24,,16,1,7,1150632.791405,1918887.951548,41.933335946,-87.721855423,"(41.93333594590917, -87.72185542340004)"
SR22-01269406,Lead Inspection Request,HDF,311 City Services,Health,Completed,Phone Call,07/20/2022 12:44:07 PM,10/21/2022 04:42:53 PM,08/02/2022 08:54:35 AM,7400 S CHAPPEL AVE,,,60649,7400,S,CHAPPEL,AVE,false,false,,,43,8,,V039,3,03,0333,42,,12,4,7,1191153.15666,1856273.404983,41.760629483,-87.574979783,"(41.76062948310483, -87.57497978319674)"
SR22-01263444,Lead Inspection Request,HDF,311 City Services,Health,Completed,Phone Call,07/19/2022 03:45:03 PM,08/01/2022 01:28:01 PM,08/01/2022 01:28:01 PM,6301 W DIVERSEY AVE,,,60639,6301,W,DIVERSEY,AVE,false,false,,,19,30,,A016,1,25,2512,29,,15,3,7,1133876.8944,1917853.287187,41.930808133,-87.78345757,"(41.93080813317471, -87.7834575697068)"
SR22-01260154,Lead Inspection Request,HDF,Alderman,Health,Completed,Alderman's Office,07/19/2022 10:14:25 AM,08/01/2022 01:20:29 PM,08/01/2022 01:20:29 PM,8407 S MUSKEGON AVE,,,60617,8407,S,MUSKEGON,AVE,false,false,,,46,10,,X042,2,04,0423,27,,10,3,7,1196695.791911,1849711.676508,41.742487735,-87.554883803,"(41.74248773515337, -87.55488380346087)"
SR22-01255802,Lead Inspection Request,HDF,,Health,Completed,Mobile Device,07/18/2022 04:43:34 PM,08/01/2022 01:12:35 PM,08/01/2022 01:12:35 PM,311 S WACKER DR,,,60606,311,S,WACKER,DR,false,false,,,32,42,,P023,2,01,0122,9,,16,2,7,1174230.695634,1898704.963526,41.877458223,-87.635738283,"(41.87745822298609, -87.6357382831482)"
SR22-01252602,Lead Inspection Request,HDF,,Health,Completed,Internet,07/18/2022 11:34:11 AM,08/01/2022 01:14:32 PM,08/01/2022 01:14:32 PM,6450 S COTTAGE GROVE AVE,,,60637,6450,S,COTTAGE GROVE,AVE,false,false,,,42,20,,R037,1,03,0312,33,,11,2,7,1182582.824937,1862203.516394,41.777105325,-87.60620628,"(41.77710532534849, -87.60620627954269)"
SR22-01242639,Lead Inspection Request,HDF,,Health,Completed,Internet,07/16/2022 12:46:53 PM,08/01/2022 01:04:27 PM,08/01/2022 01:04:27 PM,6351 S COTTAGE GROVE AVE,,,60637,6351,S,COTTAGE GROVE,AVE,false,false,,,42,20,,S037,1,03,0312,5,,12,7,7,1182669.781952,1862864.936406,41.778918306,-87.605866988,"(41.778918305699285, -87.60586698807735)"
SR22-01191649,Lead Inspection Request,HDF,,Health,Completed,Internet,07/08/2022 10:55:42 PM,08/01/2022 09:56:40 AM,08/01/2022 09:56:40 AM,6667 S MICHIGAN AVE,,,60637,6667,S,MICHIGAN,AVE,false,false,,,69,20,,Q037,2,03,0322,28,,22,6,7,1178174.896845,1860686.688276,41.773044129,-87.622411496,"(41.77304412896395, -87.6224114960703)"
SR22-01186627,Lead Inspection Request,HDF,311 City Services,Health,Completed,Phone Call,07/08/2022 11:53:22 AM,08/01/2022 10:16:57 AM,08/01/2022 10:16:57 AM,4423 W CONGRESS PKWY,,,60624,4423,W,CONGRESS,PKWY,false,false,,,26,28,,E023,3,11,1131,16,,11,6,7,1146872.444446,1897249.119587,41.874029471,-87.736228093,"(41.87402947132415, -87.73622809342675)"
SR22-01183815,Lead Inspection Request,HDF,,Health,Completed,Internet,07/08/2022 12:01:19 AM,07/08/2022 09:06:23 AM,07/08/2022 09:06:23 AM,2131 S ARCHER AVE,,,60616,2131,S,ARCHER,AVE,false,false,,,34,25,,P026,1,09,0914,14,,0,6,7,1175054.273749,1889983.108918,41.853506454,-87.632975615,"(41.85350645405709, -87.63297561504073)"
SR22-01176673,Lead Inspection Request,HDF,311 City Services,Health,Completed,Phone Call,07/07/2022 08:51:04 AM,07/07/2022 10:29:02 AM,07/07/2022 10:29:02 AM,7352 S YALE AVE,,,60621,7352,S,YALE,AVE,false,false,,,69,6,,P039,3,07,0731,10,,8,5,7,1175827.750156,1855990.739467,41.760210829,-87.631156028,"(41.76021082935439, -87.63115602789684)"
SR22-01171058,Lead Inspection Request,HDF,311 City Services,Health,Completed,Phone Call,07/06/2022 01:54:42 PM,07/14/2022 12:33:23 PM,07/14/2022 12:33:23 PM,10827 S CALUMET AVE,,,60628,10827,S,CALUMET,AVE,false,false,,,49,9,,Q048,1,05,0513,9,,13,4,7,1180568.770712,1833134.503987,41.697383017,-87.614479808,"(41.69738301707507, -87.61447980830505)"
SR22-01164098,Lead Inspection Request,HDF,Alderman,Health,Completed,Alderman's Office,07/05/2022 03:59:21 PM,07/06/2022 11:24:16 AM,07/06/2022 11:24:16 AM,2648 S TROY ST,,,60623,2648,S,TROY,ST,false,false,,,30,12,,I028,3,10,1033,15,,15,3,7,1155728.641839,1886043.536716,41.843106448,-87.704013629,"(41.843106448090126, -87.7040136287077)"
SR22-01155596,Lead Inspection Request,HDF,,Health,Completed,Internet,07/04/2022 04:44:29 PM,07/14/2022 08:51:56 AM,07/14/2022 08:51:56 AM,8346 S BURNHAM AVE,,,60617,8346,S,BURNHAM,AVE,false,false,,,46,7,,W042,2,04,0423,28,,16,2,7,1196211.434105,1849974.143032,41.743219974,-87.556649777,"(41.74321997392718, -87.55664977676753)"
SR22-01154103,Lead Inspection Request,HDF,,Health,Completed,Mobile Device,07/04/2022 11:56:05 AM,07/05/2022 09:44:32 AM,07/05/2022 09:44:32 AM,932 W AINSLIE ST,,,60640,932,W,AINSLIE,ST,false,false,,,3,48,,N010,2,20,2024,17,,11,2,7,1169014.723281,1933063.213968,41.971853781,-87.653890196,"(41.97185378134631, -87.65389019570095)"
SR22-01131686,Lead Inspection Request,HDF,311 City Services,Health,Completed,Phone Call,06/30/2022 01:35:14 PM,07/05/2022 02:05:37 PM,07/05/2022 02:05:37 PM,6143 W WARWICK AVE,,,60634,6143,W,WARWICK,AVE,false,false,,,17,36,,A013,3,16,1633,15,,13,5,6,1134568.559033,1924280.830369,41.948433818,-87.78076355,"(41.948433817516886, -87.7807635501245)"
SR22-01124604,Lead Inspection Request,HDF,,Health,Completed,Mobile Device,06/29/2022 03:37:08 PM,07/05/2022 01:30:35 PM,07/05/2022 01:30:35 PM,1403 W JARVIS AVE,,,60626,1403,W,JARVIS,AVE,false,false,,,1,49,,M004,2,24,2423,30,,15,4,6,1165507.681193,1949047.437987,42.015790499,-87.666328241,"(42.01579049882, -87.66632824058968)"
SR22-01119649,Lead Inspection Request,HDF,311 City Services,Health,Completed,Phone Call,06/29/2022 08:40:48 AM,06/30/2022 01:43:03 PM,06/30/2022 01:43:03 PM,2455 E 78TH ST,,,60649,2455,E,78TH,ST,false,false,,,43,7,,W040,2,04,0421,16,,8,4,6,1194149.642581,1853683.653493,41.753449991,-87.564082619,"(41.75344999085851, -87.56408261932305)"
SR22-01113266,Lead Inspection Request,HDF,,Health,Completed,Internet,06/28/2022 12:19:44 PM,07/08/2022 09:47:55 AM,07/08/2022 09:47:55 AM,5339 W WILSON AVE,,,60630,5339,W,WILSON,AVE,false,false,,,15,45,,C011,2,16,1623,17,,12,3,6,1139733.16365,1930142.416064,41.964425616,-87.76163546,"(41.964425616098744, -87.76163545970064)"
SR22-01111870,Lead Inspection Request,HDF,311 City Services,Health,Completed,Phone Call,06/28/2022 10:20:36 AM,07/07/2022 10:37:07 AM,07/07/2022 10:37:07 AM,7943 S BISHOP ST,,,60620,7943,S,BISHOP,ST,false,false,,,71,21,,M041,1,06,0612,30,,10,3,6,1168128.641501,1851904.539537,41.749166729,-87.65949068,"(41.749166729354464, -87.659490679522)"
SR22-01078046,Lead Inspection Request,HDF,,Health,Completed,Internet,06/23/2022 11:25:05 AM,07/05/2022 09:10:47 AM,07/05/2022 09:10:47 AM,5138 S KENWOOD AVE,,,60615,5138,S,KENWOOD,AVE,false,false,,,41,4,,T034,3,02,0234,1,,11,5,6,1185886.424666,1871036.949045,41.801267689,-87.593816957,"(41.801267689155964, -87.59381695686004)"
SR22-01071412,Lead Inspection Request,HDF,,Health,Completed,Internet,06/22/2022 01:23:28 PM,07/05/2022 12:48:48 PM,07/05/2022 12:48:48 PM,4754 N SPRINGFIELD AVE,,,60625,4754,N,SPRINGFIELD,AVE,false,false,,,14,35,,G011,2,17,1723,30,,13,4,6,1149516.235142,1931538.232139,41.96807108,-87.72562909,"(41.96807107987515, -87.72562909033002)"
SR22-01054889,Lead Inspection Request,HDF,311 City Services,Health,Completed,Phone Call,06/20/2022 12:15:10 PM,06/30/2022 01:14:13 PM,06/30/2022 01:14:13 PM,1133 N LECLAIRE AVE,,,60651,1133,N,LECLAIRE,AVE,false,false,,,25,37,,D020,3,15,1531,33,,12,2,6,1142236.844834,1907206.637347,41.901441341,-87.753000815,"(41.90144134142111, -87.75300081484738)"
SR22-01051784,Lead Inspection Request,HDF,,Health,Completed,Internet,06/19/2022 07:18:59 PM,06/27/2022 10:09:34 AM,06/27/2022 10:09:35 AM,9130 S VINCENNES AVE,,,60620,9130,S,VINCENNES,AVE,false,false,,,73,21,,N044,2,22,2222,19,,19,1,6,1171177.213816,1844268.218483,41.728145554,-87.648542189,"(41.728145554085536, -87.64854218915335)"
SR22-01050787,Lead Inspection Request,HDF,311 City Services,Health,Completed,Phone Call,06/19/2022 02:57:06 PM,06/30/2022 01:29:18 PM,06/30/2022 01:29:18 PM,6510 S HERMITAGE AVE,,,60636,6510,S,HERMITAGE,AVE,false,false,,,67,15,,L037,2,07,0725,22,,14,1,6,1165722.73049,1861437.456727,41.775377731,-87.668036722,"(41.77537773127043, -87.66803672230594)"
SR22-01014467,Lead Inspection Request,HDF,311 City Services,Health,Completed,Phone Call,06/14/2022 01:45:35 PM,06/30/2022 01:53:55 PM,06/30/2022 01:53:55 PM,7209 S EAST END AVE,,,60649,7209,S,EAST END,AVE,false,false,,,43,7,,U039,2,03,0324,1,,13,3,6,1188858.096926,1857460.654559,41.763942612,-87.583353201,"(41.763942612028615, -87.58335320050062)"
SR22-00993252,Lead Inspection Request,HDF,,Health,Completed,Internet,06/11/2022 10:09:14 PM,06/13/2022 03:01:53 PM,06/13/2022 03:01:53 PM,7500 S SOUTH SHORE DR,,,60649,7500,S,SOUTH SHORE,DR,false,false,,,43,7,,W039,2,04,0421,13,,22,7,6,1195898.741975,1856166.149649,41.760219049,-87.557590914,"(41.760219048789374, -87.55759091411859)"
SR22-00987242,Lead Inspection Request,HDF,311 City Services,Health,Completed,Phone Call,06/10/2022 04:43:20 PM,06/15/2022 04:17:50 PM,06/15/2022 04:17:50 PM,944 E 83RD ST,,,60619,944,E,83RD,ST,false,false,,,44,8,,S041,3,06,0631,14,,16,6,6,1184109.392903,1850224.668778,41.744198627,-87.600983833,"(41.74419862700735, -87.60098383321632)"
SR22-00976404,Lead Inspection Request,HDF,311 City Services,Health,Completed,Phone Call,06/09/2022 12:28:16 PM,06/09/2022 04:11:54 PM,06/09/2022 04:11:54 PM,8619 S SAINT LAWRENCE AVE,,,60619,8619,S,SAINT LAWRENCE,AVE,false,false,,,44,6,,R042,3,06,0632,13,,12,5,6,1181816.863356,1847880.388976,41.737818891,-87.609456075,"(41.73781889074804, -87.60945607536519)"
SR22-00971149,Lead Inspection Request,HDF,311 City Services,Health,Completed,Phone Call,06/08/2022 04:55:33 PM,06/09/2022 04:10:13 PM,06/09/2022 04:10:13 PM,6812 S WOLCOTT AVE,,,60636,6812,S,WOLCOTT,AVE,false,false,,,67,17,,L038,2,07,0726,19,,16,4,6,1164798.391415,1859426.789078,41.769879762,-87.671481975,"(41.76987976194171, -87.67148197459399)"
SR22-00969079,Lead Inspection Request,HDF,,Health,Completed,Internet,06/08/2022 01:34:18 PM,06/08/2022 04:12:01 PM,06/08/2022 04:12:01 PM,1909 W LUNT AVE,,,60626,1909,W,LUNT,AVE,false,false,,,1,49,,L005,2,24,2424,13,,13,4,6,1162232.11192,1946418.124813,42.008645009,-87.678455272,"(42.00864500897397, -87.67845527176198)"
SR22-00968340,Lead Inspection Request,HDF,,Health,Completed,Internet,06/08/2022 12:24:47 PM,06/08/2022 01:11:26 PM,06/08/2022 01:11:26 PM,6059 S PRAIRIE AVE,,,60637,6059,S,PRAIRIE,AVE,false,false,,,40,20,,Q036,1,03,0311,7,,12,4,6,1179095.043658,1864659.700403,41.783925555,-87.618917499,"(41.783925554802394, -87.61891749885174)"
SR22-00964426,Lead Inspection Request,HDF,,Health,Completed,Internet,06/07/2022 10:21:49 PM,06/08/2022 10:57:49 AM,06/08/2022 10:57:49 AM,6805 N GREENVIEW AVE,,,60626,6805,N,GREENVIEW,AVE,false,false,,,1,49,,M005,3,24,2431,23,,22,3,6,1165202.643276,1945348.137158,42.005646068,-87.667556543,"(42.005646067781655, -87.66755654329472)"
SR22-00956607,Lead Inspection Request,HDF,,Health,Completed,Mobile Device,06/07/2022 06:25:52 AM,06/07/2022 10:53:29 AM,06/07/2022 10:53:29 AM,5659 S MARSHFIELD AVE,,,60636,5659,S,MARSHFIELD,AVE,false,false,,,67,16,,L035,1,07,0715,10,,6,3,6,1166387.748703,1866954.682912,41.790503552,-87.665441737,"(41.790503552128065, -87.66544173749469)"
SR22-00948300,Lead Inspection Request,HDF,,Health,Completed,Internet,06/06/2022 07:09:07 AM,06/06/2022 09:22:44 AM,06/06/2022 09:22:44 AM,6055 S KILDARE AVE,,,60629,6055,S,KILDARE,AVE,false,false,,,65,13,,F036,1,08,0813,16,,7,2,6,1148823.786786,1863884.693257,41.782435392,-87.729924007,"(41.78243539193576, -87.7299240073177)"
SR22-00942536,Lead Inspection Request,HDF,,Health,Completed,Mobile Device,06/04/2022 09:59:02 PM,06/07/2022 12:26:23 PM,06/07/2022 12:26:23 PM,2656 W 24TH PL,,,60608,2656,W,24TH,PL,false,false,,,30,12,,J027,3,10,1034,18,,21,7,6,1158816.392089,1887787.287798,41.847828849,-87.69263454,"(41.84782884923236, -87.69263454033596)"
SR22-00938622,Lead Inspection Request,HDF,,Health,Completed,Internet,06/03/2022 10:07:08 PM,06/06/2022 09:28:19 AM,06/06/2022 09:28:19 AM,5636 W IRVING PARK RD,,,60634,5636,W,IRVING PARK,RD,false,false,,,15,38,,B012,2,16,1624,40,,22,6,6,1137913.641372,1926137.557629,41.953469024,-87.768422508,"(41.953469023818414, -87.76842250754142)"
SR22-00935789,Lead Inspection Request,HDF,DWM - Department of Water Management,Health,Completed,Phone Call,06/03/2022 01:55:03 PM,06/03/2022 03:34:44 PM,06/03/2022 03:34:44 PM,5507 S KIMBARK AVE,,,60637,5507,S,KIMBARK,AVE,false,false,,,41,5,,T035,3,02,0235,39,,13,6,6,1185674.677624,1868638.611368,41.794691462,-87.594669079,"(41.79469146209954, -87.59466907922825)"
SR22-00934563,Lead Inspection Request,HDF,311 City Services,Health,Completed,Phone Call,06/03/2022 11:45:51 AM,06/03/2022 01:57:34 PM,06/03/2022 01:57:34 PM,4202 W WASHINGTON BLVD,,,60624,4202,W,WASHINGTON,BLVD,false,false,,,26,28,,F022,1,11,1114,23,,11,6,6,1148325.378193,1900170.406653,41.88201796,-87.730818252,"(41.88201796013079, -87.73081825194718)"
SR22-00934146,Lead Inspection Request,HDF,,Health,Completed,Mobile Device,06/03/2022 11:02:54 AM,06/03/2022 11:34:38 AM,06/03/2022 11:34:38 AM,4202 W WASHINGTON BLVD,,,60624,4202,W,WASHINGTON,BLVD,true,false,,SR22-00929876,26,28,,F022,1,11,1114,23,,11,6,6,1148325.378193,1900170.406653,41.88201796,-87.730818252,"(41.88201796013079, -87.73081825194718)"
SR22-00929876,Lead Inspection Request,HDF,311 City Services,Health,Completed,Phone Call,06/02/2022 04:09:57 PM,06/03/2022 11:34:38 AM,06/03/2022 11:34:38 AM,4202 W WASHINGTON BLVD,,,60624,4202,W,WASHINGTON,BLVD,false,false,,,26,28,,F022,1,11,1114,23,,16,5,6,1148325.378193,1900170.406653,41.88201796,-87.730818252,"(41.88201796013079, -87.73081825194718)"
SR22-00929648,Lead Inspection Request,HDF,311 City Services,Health,Completed,Phone Call,06/02/2022 03:41:40 PM,06/03/2022 10:37:37 AM,06/03/2022 10:37:37 AM,6800 S DANTE AVE,,,60637,6800,S,DANTE,AVE,false,false,,,43,5,,T038,3,03,0332,30,,15,5,6,1187123.913203,1860162.589715,41.771398277,-87.589623662,"(41.771398277171365, -87.58962366186677)"
SR22-00928062,Lead Inspection Request,HDF,311 City Services,Health,Completed,Phone Call,06/02/2022 12:59:44 PM,06/03/2022 10:40:54 AM,06/03/2022 10:40:54 AM,1701 W ALBION AVE,,,60626,1701,W,ALBION,AVE,false,false,,,1,40,,L006,3,24,2432,28,,12,5,6,1163904.302655,1943707.464983,42.001171629,-87.672379844,"(42.00117162938456, -87.67237984423804)"
SR22-00925265,Lead Inspection Request,HDF,,Health,Completed,Mobile Device,06/02/2022 08:33:28 AM,06/02/2022 12:48:25 PM,06/02/2022 12:48:25 PM,733 N LAMON AVE,,,60644,733,N,LAMON,AVE,false,false,,,25,37,,D021,3,15,1531,27,,8,5,6,1143596.579191,1904611.9144,41.894295776,-87.748071323,"(41.89429577553484, -87.74807132284528)"
SR22-00919671,Lead Inspection Request,HDF,,Health,Completed,Internet,06/01/2022 11:39:55 AM,06/02/2022 12:52:41 PM,06/02/2022 12:52:41 PM,4943 S KARLOV AVE,,,60632,4943,S,KARLOV,AVE,false,false,,,57,14,,F033,1,08,0815,28,,11,4,6,1149936.1445,1871354.789872,41.802912992,-87.725652139,"(41.802912991564476, -87.72565213944578)"
SR22-00915212,Lead Inspection Request,HDF,311 City Services,Health,Completed,Phone Call,05/31/2022 05:14:15 PM,06/02/2022 12:50:35 PM,06/02/2022 12:50:35 PM,1701 W ALBION AVE,,,60626,1701,W,ALBION,AVE,false,false,,,1,40,,L006,3,24,2432,28,,17,3,5,1163904.302655,1943707.464983,42.001171629,-87.672379844,"(42.00117162938456, -87.67237984423804)"
SR22-00909120,Lead Inspection Request,HDF,,Health,Completed,Mobile Device,05/31/2022 01:02:30 AM,05/31/2022 04:25:29 PM,05/31/2022 04:25:29 PM,9720 S BRENNAN AVE,,,60617,9720,S,BRENNAN,AVE,false,false,,,51,7,,V045,3,04,0431,41,,1,3,5,1193176.934665,1840780.248257,41.718065695,-87.568067622,"(41.71806569515454, -87.56806762166046)"
SR22-00908478,Lead Inspection Request,HDF,,Health,Completed,Internet,05/30/2022 08:56:27 PM,05/31/2022 10:18:05 AM,05/31/2022 10:18:05 AM,5101 S ASHLAND AVE,,,60609,5101,S,ASHLAND,AVE,false,false,,,61,16,,M034,3,09,0934,12,,20,2,5,1166677.440338,1870816.439582,41.801094492,-87.664269302,"(41.80109449244376, -87.66426930172713)"
SR22-00903249,Lead Inspection Request,HDF,,Health,Completed,Internet,05/29/2022 08:26:44 PM,05/31/2022 10:24:33 AM,05/31/2022 10:24:33 AM,5460 S KIMBARK AVE,,,60615,5460,S,KIMBARK,AVE,false,false,,,41,5,,T034,3,02,0234,3,,20,1,5,1185414.172837,1869202.88927,41.796246024,-87.595606576,"(41.79624602361573, -87.59560657600692)"
SR22-00899662,Lead Inspection Request,HDF,,Health,Completed,Internet,05/28/2022 11:28:03 PM,05/31/2022 09:42:35 AM,05/31/2022 09:42:35 AM,4242 N MCVICKER AVE,,,60634,4242,N,MCVICKER,AVE,false,false,,,15,38,,A012,2,16,1624,21,,23,7,5,1135182.02194,1927763.017744,41.957978421,-87.778425665,"(41.957978420933564, -87.77842566509442)"
SR22-00898666,Lead Inspection Request,HDF,,Health,Completed,Internet,05/28/2022 05:51:32 PM,05/31/2022 09:40:27 AM,05/31/2022 09:40:27 AM,2312 N HARLEM AVE,,,,2312,N,HARLEM,AVE,false,false,,,,,,X117,,,,,,17,7,5,1127704.56541,1914428.851963,41.921517431,-87.806217411,"(41.92151743106173, -87.80621741052312)"
SR22-00896118,Lead Inspection Request,HDF,,Health,Completed,Mobile Device,05/28/2022 07:41:28 AM,06/02/2022 10:37:25 AM,06/02/2022 10:37:25 AM,543 W 111TH ST,,,60628,543,W,111TH,ST,false,false,,,49,34,,O049,3,22,2233,23,,7,7,5,1174478.299426,1831201.992592,41.69221724,-87.63683686,"(41.692217240157525, -87.63683686042789)"
SR22-00890873,Lead Inspection Request,HDF,,Health,Completed,Internet,05/27/2022 11:05:49 AM,05/27/2022 12:12:11 PM,05/27/2022 12:12:11 PM,7208 S EVANS AVE,,,60619,7208,S,EVANS,AVE,false,false,,,69,6,,R039,2,03,0323,30,,11,6,5,1182403.96795,1857318.619703,41.763704839,-87.60701319,"(41.76370483869772, -87.60701318951152)"
SR22-00887151,Lead Inspection Request,HDF,,Health,Completed,Internet,05/26/2022 05:50:57 PM,05/27/2022 09:09:49 AM,05/27/2022 09:09:49 AM,6549 N WASHTENAW AVE,,,60645,6549,N,WASHTENAW,AVE,false,false,,,2,50,,J006,1,24,2412,36,,17,5,5,1157200.22785,1943544.243377,42.000863102,-87.69704752,"(42.000863102457465, -87.69704752007706)"
SR22-00871770,Lead Inspection Request,HDF,311 City Services,Health,Completed,Phone Call,05/24/2022 04:30:14 PM,05/26/2022 12:01:06 PM,05/26/2022 12:01:06 PM,7317 S MAY ST,,,60621,7317,S,MAY,ST,false,false,,,68,17,,N039,3,07,0733,5,,16,3,5,1169994.071846,1856202.025328,41.760919306,-87.6525304,"(41.76091930557384, -87.65253039961182)"
SR22-00859378,Lead Inspection Request,HDF,Alderman,Health,Completed,Phone Call,05/23/2022 09:03:55 AM,05/24/2022 09:54:22 AM,05/24/2022 09:54:22 AM,2020 N KARLOV AVE,,,60639,2020,N,KARLOV,AVE,true,false,,SR22-00859366,20,35,,F017,2,25,2525,12,,9,2,5,1148647.407782,1913217.291787,41.917813761,-87.729298438,"(41.9178137607018, -87.72929843756391)"
SR22-00859366,Lead Inspection Request,HDF,Alderman,Health,Completed,Alderman's Office,05/23/2022 09:02:26 AM,05/24/2022 09:54:22 AM,05/24/2022 09:54:22 AM,4102 W ARMITAGE AVE,,,60639,4102,W,ARMITAGE,AVE,false,false,,,20,35,,F017,2,25,2525,12,,9,2,5,1148653.723195,1913033.194899,41.917308459,-87.729279998,"(41.91730845919611, -87.72927999833568)"
SR22-00848958,Lead Inspection Request,HDF,,Health,Completed,Internet,05/20/2022 08:55:50 PM,05/23/2022 01:31:09 PM,05/23/2022 01:31:09 PM,1629 S PRAIRIE AVE,,,60616,1629,S,PRAIRIE,AVE,false,false,,,33,3,,Q026,3,01,0132,19,,20,6,5,1178469.411942,1892134.099206,41.859331791,-87.620375427,"(41.85933179103052, -87.62037542682741)"
SR22-00844008,Lead Inspection Request,HDF,,Health,Completed,Internet,05/20/2022 10:02:34 AM,05/26/2022 10:43:24 AM,05/26/2022 10:43:24 AM,5325 S HYDE PARK BLVD,,,60615,5325,S,HYDE PARK,BLVD,false,false,,,41,5,,U034,3,02,0234,23,,10,6,5,1188668.643123,1870166.242802,41.798812273,-87.583641571,"(41.79881227250832, -87.58364157101944)"
SR22-00833877,Lead Inspection Request,HDF,,Health,Completed,Mobile Device,05/18/2022 10:50:57 PM,05/20/2022 03:48:38 PM,05/20/2022 03:48:38 PM,8443 S THROOP ST,,,60620,8443,S,THROOP,ST,false,false,,,71,21,,M042,1,06,0613,20,,22,4,5,1169209.590788,1848603.481461,41.740084869,-87.655624926,"(41.74008486891616, -87.65562492618878)"
SR22-00821882,Lead Inspection Request,HDF,,Health,Completed,Internet,05/17/2022 11:45:39 AM,05/20/2022 03:46:23 PM,05/20/2022 03:46:23 PM,1960 W FARGO AVE,,,60626,1960,W,FARGO,AVE,false,false,,,1,49,,L004,2,24,2424,19,,11,3,5,1161772.249681,1949341.419903,42.016676241,-87.680065145,"(42.01667624127357, -87.68006514529705)"
SR22-00790491,Lead Inspection Request,HDF,311 City Services,Health,Completed,Phone Call,05/12/2022 10:46:21 AM,05/12/2022 11:04:09 AM,05/12/2022 11:04:09 AM,6949 S PAXTON AVE,,,60649,6949,S,PAXTON,AVE,false,false,,,43,5,,V038,3,03,0331,38,,10,5,5,1192094.79894,1859117.459953,41.768410962,-87.57143636,"(41.76841096219895, -87.57143636029194)"
SR22-00786711,Lead Inspection Request,HDF,311 City Services,Health,Completed,Phone Call,05/11/2022 06:20:52 PM,05/12/2022 09:55:34 AM,05/12/2022 09:55:34 AM,6738 S CAMPBELL AVE,,,60629,6738,S,CAMPBELL,AVE,false,false,,,66,17,,J038,3,08,0832,8,,18,4,5,1160800.514351,1859725.306804,41.770782425,-87.686128313,"(41.770782425278874, -87.68612831339242)"
SR22-00769424,Lead Inspection Request,HDF,,Health,Completed,Internet,05/09/2022 03:57:57 PM,05/10/2022 10:06:00 AM,05/10/2022 10:06:00 AM,7008 N GREENVIEW AVE,,,60626,7008,N,GREENVIEW,AVE,false,false,,,1,49,,M005,2,24,2423,20,,15,2,5,1165026.026798,1946683.437575,42.009313926,-87.66816816,"(42.009313925672814, -87.66816815991412)"
SR22-00741667,Lead Inspection Request,HDF,,Health,Completed,Mobile Device,05/04/2022 08:09:52 PM,05/05/2022 09:21:40 AM,05/05/2022 09:21:40 AM,8400 W BERWYN AVE,,,60656,8400,W,BERWYN,AVE,false,false,,,76,41,,U109,1,16,1614,25,,20,4,5,1119235.244709,1934039.064103,41.975469049,-87.836919331,"(41.97546904855139, -87.83691933087992)"
SR22-00683121,Lead Inspection Request,HDF,,Health,Completed,Internet,04/25/2022 08:03:29 PM,05/03/2022 09:27:39 AM,05/03/2022 09:27:39 AM,4538 N KIMBALL AVE,,,60625,4538,N,KIMBALL,AVE,false,false,,,14,33,,H011,2,17,1723,1,,20,2,4,1152826.734706,1930116.313751,41.964104165,-87.713494362,"(41.964104165182725, -87.71349436225984)"
SR22-00658344,Lead Inspection Request,HDF,,Health,Completed,Internet,04/21/2022 05:41:44 PM,04/22/2022 09:24:00 AM,04/22/2022 09:24:00 AM,5749 N WASHTENAW AVE,,,60659,5749,N,WASHTENAW,AVE,false,false,,,2,40,,J008,1,20,2011,2,,17,5,4,1157367.995036,1938246.477023,41.986322386,-87.696575254,"(41.98632238624642, -87.69657525376724)"
SR22-00655808,Lead Inspection Request,HDF,,Health,Completed,Internet,04/21/2022 12:32:46 PM,05/03/2022 09:44:03 AM,05/03/2022 09:44:03 AM,6732 S CHAPPEL AVE,,,60649,6732,S,CHAPPEL,AVE,false,false,,,43,5,,V038,3,03,0331,1,,12,5,4,1190903.447931,1860598.639583,41.772504312,-87.57575534,"(41.77250431171286, -87.57575533996355)"
SR22-00653449,Lead Inspection Request,HDF,311 City Services,Health,Completed,Phone Call,04/21/2022 08:32:17 AM,05/11/2022 12:30:10 PM,05/11/2022 12:30:10 PM,200 N CENTRAL AVE,,,60644,200,N,CENTRAL,AVE,false,false,,,25,29,,B022,1,15,1512,11,,8,5,4,1138784.884104,1900964.605367,41.884375803,-87.765832059,"(41.884375803167835, -87.76583205913774)"
SR22-00648624,Lead Inspection Request,HDF,,Health,Completed,Internet,04/20/2022 01:10:31 PM,05/04/2022 09:05:37 AM,05/04/2022 09:05:37 AM,4109 N SACRAMENTO AVE,,,60618,4109,N,SACRAMENTO,AVE,false,false,,,16,33,,I012,2,17,1724,25,,13,4,4,1155742.820505,1927210.636879,41.956072422,-87.702851344,"(41.95607242236803, -87.70285134415506)"
SR22-00646264,Lead Inspection Request,HDF,,Health,Completed,Internet,04/20/2022 08:44:30 AM,04/21/2022 10:32:06 AM,04/21/2022 10:32:06 AM,749 E 65TH ST,,,60637,749,E,65TH,ST,false,false,,,42,20,,R037,2,03,0321,18,,8,4,4,1182570.89195,1862031.566581,41.776633756,-87.606255355,"(41.77663375570008, -87.6062553547643)"
SR22-00637581,Lead Inspection Request,HDF,,Health,Completed,Internet,04/18/2022 07:48:54 PM,04/19/2022 09:18:10 AM,04/19/2022 09:18:10 AM,3342 W BRYN MAWR AVE,,,60659,3342,W,BRYN MAWR,AVE,false,false,,,13,39,,H008,1,17,1711,16,,19,2,4,1152903.001829,1937083.83665,41.983221954,-87.713028456,"(41.983221954049725, -87.71302845626052)"
SR22-00632436,Lead Inspection Request,HDF,,Health,Completed,Internet,04/18/2022 08:51:42 AM,04/19/2022 09:22:13 AM,04/19/2022 09:22:13 AM,4844 N TALMAN AVE,,,60625,4844,N,TALMAN,AVE,false,false,,,4,40,,J010,3,20,2031,6,,8,2,4,1157742.695978,1932285.566464,41.969957704,-87.695360393,"(41.96995770427772, -87.69536039336256)"
SR22-00624912,Lead Inspection Request,HDF,,Health,Completed,Internet,04/16/2022 08:54:18 AM,04/18/2022 03:43:15 PM,04/18/2022 03:43:15 PM,2448 N CLARK ST,,,60614,2448,N,CLARK,ST,false,false,,,7,43,,O016,3,19,1935,37,,8,7,4,1172498.70039,1916648.52179,41.926734796,-87.641566372,"(41.92673479581349, -87.64156637210242)"
SR22-00620677,Lead Inspection Request,HDF,311 City Services,Health,Completed,Phone Call,04/15/2022 01:02:34 PM,04/18/2022 02:23:39 PM,04/18/2022 02:23:39 PM,6131 S MICHIGAN AVE,,,60637,6131,S,MICHIGAN,AVE,false,false,,,40,20,,Q036,1,03,0311,23,,13,6,4,1178310.121,1864264.23871,41.782858228,-87.621807292,"(41.78285822834352, -87.6218072917354)"
SR22-00602920,Lead Inspection Request,HDF,,Health,Completed,Internet,04/13/2022 07:47:33 AM,04/13/2022 12:42:40 PM,04/13/2022 12:42:40 PM,6711 S LANGLEY AVE,,,60637,6711,S,LANGLEY,AVE,false,false,,,42,20,,R038,2,03,0321,8,,7,4,4,1182126.136923,1860589.44726,41.772686748,-87.607930383,"(41.77268674831708, -87.60793038254525)"
SR22-00602881,Lead Inspection Request,HDF,,Health,Completed,Internet,04/13/2022 07:41:13 AM,04/13/2022 10:58:31 AM,04/13/2022 10:58:31 AM,749 E 65TH ST,,,60637,749,E,65TH,ST,false,false,,,42,20,,R037,2,03,0321,18,,7,4,4,1182570.89195,1862031.566581,41.776633756,-87.606255355,"(41.77663375570008, -87.6062553547643)"
SR22-00601003,Lead Inspection Request,HDF,311 City Services,Health,Completed,Phone Call,04/12/2022 05:32:37 PM,04/13/2022 12:59:50 PM,04/13/2022 12:59:50 PM,6300 N OAKLEY AVE,,,60659,6300,N,OAKLEY,AVE,false,false,,,2,50,,K007,1,24,2413,31,,17,3,4,1159807.308077,1941842.452882,41.996139766,-87.687503758,"(41.99613976638889, -87.6875037575271)"
SR22-00585662,Lead Inspection Request,HDF,311 City Services,Health,Completed,Phone Call,04/10/2022 12:02:25 PM,04/11/2022 09:47:32 AM,04/11/2022 09:47:32 AM,3731 N PULASKI RD,,,60618,3731,N,PULASKI,RD,false,false,,,16,30,,G013,3,17,1732,15,,12,1,4,1149138.642341,1924654.537618,41.949189049,-87.727196518,"(41.949189048675436, -87.72719651838582)"
SR22-00577076,Lead Inspection Request,HDF,311 City Services,Health,Completed,Phone Call,04/08/2022 02:17:18 PM,04/11/2022 02:24:12 PM,04/11/2022 02:24:12 PM,727 W 47TH PL,,,60609,727,W,47TH,PL,true,false,,SR22-00577045,61,11,,O033,3,09,0935,28,,14,6,4,1172118.88414,1873298.654301,41.807787986,-87.644240677,"(41.80778798577823, -87.64424067725638)"
SR22-00577045,Lead Inspection Request,HDF,311 City Services,Health,Completed,Phone Call,04/08/2022 02:14:52 PM,04/11/2022 02:24:11 PM,04/11/2022 02:24:11 PM,735 W 47TH PL,,,60609,735,W,47TH,PL,false,false,,,61,11,,O033,3,09,0935,28,,14,6,4,1172046.634596,1873298.849329,41.80779011,-87.644505663,"(41.80779011028785, -87.64450566266257)"
SR22-00574696,Lead Inspection Request,HDF,,Health,Completed,Alderman's Office,04/08/2022 10:00:34 AM,04/08/2022 10:51:19 AM,04/08/2022 10:51:19 AM,4245 N RIDGEWAY AVE,,,60618,4245,N,RIDGEWAY,AVE,false,false,,,16,35,,G012,2,17,1723,31,,10,6,4,1150703.642353,1928151.036259,41.958753185,-87.721351999,"(41.95875318485831, -87.72135199863654)"
SR22-00567759,Lead Inspection Request,HDF,311 City Services,Health,Completed,Phone Call,04/07/2022 11:23:30 AM,04/08/2022 09:13:37 AM,04/08/2022 09:13:37 AM,7311 S STEWART AVE,,,60621,7311,S,STEWART,AVE,false,false,,,69,6,,P039,3,07,0731,10,,11,5,4,1174987.063614,1856394.93942,41.761338791,-87.634225106,"(41.76133879142284, -87.63422510609982)"
SR22-00560108,Lead Inspection Request,HDF,311 City Services,Health,Completed,Phone Call,04/06/2022 12:19:30 PM,04/06/2022 03:58:40 PM,04/06/2022 03:58:40 PM,5055 N WINCHESTER AVE,,,60640,5055,N,WINCHESTER,AVE,false,false,,,4,40,,L010,3,20,2032,13,,12,4,4,1162590.497723,1933812.537858,41.974047336,-87.677491863,"(41.97404733571534, -87.67749186348082)"
SR22-00557685,Lead Inspection Request,HDF,311 City Services,Health,Completed,Phone Call,04/06/2022 08:26:23 AM,04/06/2022 12:10:44 PM,04/06/2022 12:10:44 PM,3650 W DOUGLAS BLVD,,,60623,3650,W,DOUGLAS,BLVD,false,false,,,29,24,,G025,1,10,1011,24,,8,4,4,1152051.44043,1893236.77929,41.862918718,-87.717318802,"(41.86291871786941, -87.71731880249592)"
SR22-00549367,Lead Inspection Request,HDF,,Health,Completed,Internet,04/05/2022 03:05:20 AM,04/05/2022 09:49:35 AM,04/05/2022 09:49:35 AM,836 N RIDGEWAY AVE,,,60651,836,N,RIDGEWAY,AVE,false,false,,,23,27,,G020,1,11,1112,19,,3,3,4,1151161.8376,1905498.012566,41.89658235,-87.720262946,"(41.8965823497552, -87.72026294562262)"
SR22-00538673,Lead Inspection Request,HDF,,Health,Completed,Internet,04/03/2022 06:35:41 AM,04/04/2022 10:52:56 AM,04/04/2022 10:52:56 AM,8346 S BURNHAM AVE,,,60617,8346,S,BURNHAM,AVE,true,false,,SR22-00538650,46,7,,W042,2,04,0423,28,,6,1,4,1196211.434209,1849974.14337,41.743219975,-87.556649776,"(41.74321997485313, -87.55664977637623)"
SR22-00538650,Lead Inspection Request,HDF,,Health,Completed,Internet,04/03/2022 06:22:55 AM,04/04/2022 10:52:56 AM,04/04/2022 10:52:56 AM,8346 S BURNHAM AVE,,,60617,8346,S,BURNHAM,AVE,false,false,,,46,7,,W042,2,04,0423,28,,6,1,4,1196211.434209,1849974.14337,41.743219975,-87.556649776,"(41.74321997485313, -87.55664977637623)"
SR22-00536470,Lead Inspection Request,HDF,,Health,Completed,Internet,04/02/2022 02:13:26 PM,04/05/2022 09:14:25 AM,04/05/2022 09:14:25 AM,5716 S CAMPBELL AVE,,,60629,5716,S,CAMPBELL,AVE,false,false,,,63,16,,J035,2,08,0824,23,,14,7,4,1160611.963894,1866594.735065,41.789636983,-87.686630096,"(41.78963698328805, -87.68663009619245)"
SR22-00524040,Lead Inspection Request,HDF,311 City Services,Health,Completed,Phone Call,03/31/2022 12:56:15 PM,04/05/2022 09:18:05 AM,04/05/2022 09:18:05 AM,1859 S STATE ST,,,60616,1859,S,STATE,ST,false,false,,,33,3,,Q026,3,01,0131,14,,12,5,3,1176651.425127,1891304.517117,41.857096594,-87.627073667,"(41.85709659353645, -87.62707366727074)"
SR22-00515045,Lead Inspection Request,HDF,311 City Services,Health,Completed,Phone Call,03/30/2022 10:29:09 AM,04/04/2022 11:16:06 AM,04/04/2022 11:16:06 AM,3650 W DOUGLAS BLVD,,,60623,3650,W,DOUGLAS,BLVD,false,false,,,29,24,,G025,1,10,1011,24,,10,4,3,1152051.44043,1893236.77929,41.862918718,-87.717318802,"(41.86291871786941, -87.71731880249592)"
SR22-00512975,Lead Inspection Request,HDF,,Health,Completed,Internet,03/30/2022 01:44:17 AM,04/04/2022 11:19:22 AM,04/04/2022 11:19:22 AM,5055 N WINCHESTER AVE,,,60640,5055,N,WINCHESTER,AVE,false,false,,,4,40,,L010,3,20,2032,13,,1,4,3,1162590.497723,1933812.537858,41.974047336,-87.677491863,"(41.97404733571534, -87.67749186348082)"
SR22-00505746,Lead Inspection Request,HDF,,Health,Completed,Internet,03/29/2022 02:59:53 AM,03/29/2022 09:30:29 AM,03/29/2022 09:30:29 AM,3855 W CERMAK RD,,,60623,3855,W,CERMAK,RD,false,false,,,30,22,,G027,1,10,1013,19,,2,3,3,1150795.041796,1888972.200802,41.851240845,-87.722042402,"(41.85124084495757, -87.7220424023738)"
SR22-00498526,Lead Inspection Request,HDF,,Health,Completed,Mobile Device,03/28/2022 03:11:06 AM,03/28/2022 09:11:47 AM,03/28/2022 09:11:47 AM,3601 S LEAVITT ST,,,60609,3601,S,LEAVITT,ST,false,false,,,59,12,,K030,1,09,0912,3,,3,2,3,1162418.406806,1880736.317453,41.828405725,-87.679611965,"(41.82840572528877, -87.67961196531145)"
SR22-00467522,Lead Inspection Request,HDF,,Health,Completed,Internet,03/22/2022 02:45:13 PM,03/28/2022 10:18:37 AM,03/28/2022 10:18:37 AM,2711 S AVERS AVE,,,60623,2711,S,AVERS,AVE,false,false,,,30,22,,G028,3,10,1031,25,,14,3,3,1151213.391879,1885637.78721,41.842082615,-87.720594267,"(41.84208261454089, -87.72059426739078)"
SR22-00465388,Lead Inspection Request,HDF,,Health,Completed,Internet,03/22/2022 11:30:37 AM,03/23/2022 10:59:12 AM,03/23/2022 10:59:12 AM,2640 W FARGO AVE,,,60645,2640,W,FARGO,AVE,false,false,,,2,50,,J004,1,24,2411,4,,11,3,3,1157276.368988,1949392.749494,42.016910054,-87.696607385,"(42.01691005365535, -87.69660738526227)"
SR22-00459516,Lead Inspection Request,HDF,311 City Services,Health,Completed,Phone Call,03/21/2022 02:16:11 PM,03/22/2022 01:52:39 PM,03/22/2022 01:52:39 PM,5540 S HYDE PARK BLVD,,,60637,5540,S,HYDE PARK,BLVD,false,false,,,41,5,,U035,3,02,0235,35,,14,2,3,1188510.875068,1868426.613353,41.794042379,-87.584275721,"(41.79404237944142, -87.58427572149799)"
SR22-00459510,Lead Inspection Request,HDF,311 City Services,Health,Completed,Phone Call,03/21/2022 02:15:38 PM,03/23/2022 10:14:22 AM,03/23/2022 10:14:22 AM,7020 S JEFFERY BLVD,,,60649,7020,S,JEFFERY,BLVD,false,false,,,43,5,,U038,3,03,0332,28,,14,2,3,1190731.534036,1858713.087365,41.767334361,-87.576446343,"(41.767334360943636, -87.57644634301148)"
SR22-00457430,Lead Inspection Request,HDF,311 City Services,Health,Completed,Phone Call,03/21/2022 10:52:52 AM,03/25/2022 09:33:36 AM,03/25/2022 09:33:36 AM,7375 N DAMEN AVE,,,60626,7375,N,DAMEN,AVE,false,false,,,1,49,,L004,2,24,2424,33,,10,2,3,1161818.886785,1949140.659917,42.016124375,-87.679899173,"(42.016124374614975, -87.67989917305265)"
SR22-00442511,Lead Inspection Request,HDF,311 City Services,Health,Completed,Phone Call,03/18/2022 11:07:29 AM,03/28/2022 09:22:35 AM,03/28/2022 09:22:35 AM,3035 W WARREN BLVD,,,60612,3035,W,WARREN,BLVD,false,false,,,27,27,,I022,2,12,1222,49,,11,6,3,1156129.265698,1900168.393882,41.881858517,-87.702162347,"(41.881858516799454, -87.70216234742489)"
SR22-00406394,Lead Inspection Request,HDF,,Health,Completed,Mobile Device,03/12/2022 09:11:59 PM,03/23/2022 09:59:12 AM,03/23/2022 09:59:12 AM,2436 W ROSEMONT AVE,,,60659,2436,W,ROSEMONT,AVE,false,false,,,2,50,,J007,1,24,2413,30,,21,7,3,1158771.443076,1941852.313975,41.9961882,-87.691313966,"(41.99618820038773, -87.69131396620017)"
SR22-00404470,Lead Inspection Request,HDF,,Health,Completed,Mobile Device,03/12/2022 12:27:24 PM,03/22/2022 09:59:50 AM,03/22/2022 09:59:50 AM,1818 W PETERSON AVE,,,60660,1818,W,PETERSON,AVE,false,false,,,4,40,,L008,1,20,2012,9,,12,7,3,1163148.779684,1939907.833536,41.990761299,-87.675266705,"(41.9907612994331, -87.67526670525247)"
SR22-00401833,Lead Inspection Request,HDF,311 City Services,Health,Completed,Phone Call,03/11/2022 04:39:50 PM,03/28/2022 10:36:58 AM,03/28/2022 10:36:58 AM,6742 W 63RD ST,,,60638,6742,W,63RD,ST,false,false,,,64,13,,Z136,1,08,0812,31,,16,6,3,1132362.143346,1862075.538911,41.777771876,-87.790320299,"(41.77777187594571, -87.7903202986947)"
SR22-00384623,Lead Inspection Request,HDF,Alderman,Health,Completed,Alderman's Office,03/09/2022 11:03:04 AM,03/24/2022 04:06:55 PM,03/24/2022 04:06:55 PM,12511 S UNION AVE,,,60628,12511,S,UNION,AVE,false,false,,,53,9,,O052,2,05,0523,6,,11,4,3,1174007.264848,1821849.560566,41.666563105,-87.638837384,"(41.666563105129086, -87.6388373835861)"
SR22-00379167,Lead Inspection Request,HDF,311 City Services,Health,Completed,Phone Call,03/08/2022 02:21:54 PM,04/05/2022 10:08:04 AM,04/05/2022 10:08:04 AM,6841 W ADDISON ST,,,60634,6841,W,ADDISON,ST,false,false,,,17,38,,Y114,3,16,1632,4,,14,3,3,1130001.744543,1923090.828507,41.945247882,-87.797577925,"(41.94524788150326, -87.7975779254907)"
SR22-00373040,Lead Inspection Request,HDF,311 City Services,Health,Completed,Phone Call,03/07/2022 04:49:41 PM,03/10/2022 11:05:40 AM,03/10/2022 11:05:40 AM,317 W 105TH ST,,,60628,317,W,105TH,ST,false,false,,,49,34,,P047,1,05,0512,24,,16,2,3,1175594.108004,1835194.852606,41.703149409,-87.632632801,"(41.70314940863785, -87.63263280128866)"
SR22-00371049,Lead Inspection Request,HDF,311 City Services,Health,Completed,Phone Call,03/07/2022 12:24:38 PM,03/22/2022 09:58:28 AM,03/22/2022 09:58:28 AM,1448 N CENTRAL PARK AVE,,,60651,1448,N,CENTRAL PARK,AVE,false,false,,,23,26,,G019,3,25,2535,18,,12,2,3,1152061.78467,1909605.11697,41.907834947,-87.716849172,"(41.90783494670893, -87.71684917193973)"
SR22-00362500,Lead Inspection Request,HDF,,Health,Completed,Internet,03/05/2022 05:57:38 PM,03/08/2022 10:32:47 AM,03/08/2022 10:32:47 AM,7608 S DR MARTIN LUTHER KING JR DR,,,60619,7608,S,DR MARTIN LUTHER KING JR,DR,false,false,,,69,6,,Q040,2,06,0623,43,,17,7,3,1180145.013865,1854570.054282,41.756214522,-87.61537675,"(41.756214522016585, -87.6153767503961)"
SR22-00359970,Lead Inspection Request,HDF,311 City Services,Health,Completed,Phone Call,03/05/2022 09:22:39 AM,03/08/2022 01:43:35 PM,03/08/2022 01:43:35 PM,2437 W LITHUANIAN PLAZA CT,,,60629,2437,W,LITHUANIAN PLAZA,CT,false,false,,,66,17,,J038,3,08,0832,3,,9,7,3,1161156.590012,1858748.785279,41.76809535,-87.684850056,"(41.768095350020054, -87.68485005645249)"
SR22-00358592,Lead Inspection Request,HDF,,Health,Completed,Internet,03/04/2022 08:53:19 PM,03/08/2022 12:15:39 PM,03/08/2022 12:15:39 PM,4904 W MONROE ST,,,60644,4904,W,MONROE,ST,false,false,,,25,28,,D023,3,15,1533,39,,20,6,3,1143767.762294,1899293.042015,41.879696949,-87.747575957,"(41.87969694941052, -87.74757595706748)"
SR22-00347850,Lead Inspection Request,HDF,,Health,Completed,Internet,03/03/2022 11:17:33 AM,03/03/2022 02:09:22 PM,03/03/2022 02:09:22 PM,2815 W DIVISION ST,,,60622,2815,W,DIVISION,ST,false,false,,,24,26,,I020,1,12,1211,27,,11,5,3,1157314.202578,1907695.938122,41.902490789,-87.69760647,"(41.902490789172916, -87.6976064704466)"
SR22-00325258,Lead Inspection Request,HDF,Alderman,Health,Completed,Alderman's Office,02/28/2022 10:55:21 AM,02/28/2022 02:15:36 PM,02/28/2022 02:15:36 PM,3012 S WALLACE ST,,,60616,3012,S,WALLACE,ST,false,false,,,60,11,,O028,1,09,0914,18,,10,2,2,1172710.892794,1884845.037086,41.83945929,-87.641728462,"(41.8394592897777, -87.641728461643)"
SR22-00324103,Lead Inspection Request,HDF,311 City Services,Health,Completed,Phone Call,02/28/2022 08:58:21 AM,03/01/2022 09:26:05 AM,03/01/2022 09:26:05 AM,7373 N DAMEN AVE,,,60626,7373,N,DAMEN,AVE,false,false,,,1,49,,L004,2,24,2424,33,,8,2,2,1161818.886785,1949125.540598,42.016082887,-87.679899598,"(42.01608288686612, -87.67989959775792)"
SR22-00319745,Lead Inspection Request,HDF,,Health,Completed,Internet,02/27/2022 09:45:54 AM,03/01/2022 09:27:38 AM,03/01/2022 09:27:38 AM,6412 S CAMPBELL AVE,,,60629,6412,S,CAMPBELL,AVE,false,false,,,66,16,,J037,2,08,0825,4,,9,1,2,1160731.391658,1861972.28919,41.776949891,-87.686319726,"(41.77694989092956, -87.68631972581642)"
SR22-00304647,Lead Inspection Request,HDF,311 City Services,Health,Completed,Phone Call,02/24/2022 12:34:24 PM,02/25/2022 02:19:57 PM,02/25/2022 02:19:57 PM,7002 S DORCHESTER AVE,,,60637,7002,S,DORCHESTER,AVE,false,false,,,43,5,,T038,2,03,0321,30,,12,5,2,1186525.416814,1858747.960589,41.76753059,-87.591862217,"(41.767530589704435, -87.59186221680892)"
SR22-00277039,Lead Inspection Request,HDF,311 City Services,Health,Completed,Phone Call,02/20/2022 09:04:05 AM,03/01/2022 11:04:36 AM,03/01/2022 11:04:36 AM,8359 S PAULINA ST,,,60620,8359,S,PAULINA,ST,false,false,,,71,21,,L042,1,06,0614,13,,9,1,2,1166554.229769,1849054.528411,41.741379579,-87.665341021,"(41.74137957883334, -87.66534102118389)"
SR22-00274940,Lead Inspection Request,HDF,311 City Services,Health,Completed,Phone Call,02/19/2022 04:19:41 PM,02/25/2022 12:21:23 PM,02/25/2022 12:21:23 PM,7924 S WABASH AVE,,,60619,7924,S,WABASH,AVE,false,false,,,44,6,,Q041,2,06,0623,41,,16,7,2,1177889.517878,1852362.06342,41.750206894,-87.623709354,"(41.75020689374293, -87.62370935406963)"
SR22-00258020,Lead Inspection Request,HDF,,Health,Completed,Internet,02/16/2022 06:18:15 PM,02/17/2022 11:44:22 AM,02/17/2022 11:44:22 AM,440 W BARRY AVE,,,60657,440,W,BARRY,AVE,false,false,,,6,44,,O015,3,19,1934,17,,18,4,2,1172576.091245,1920774.110422,41.938053865,-87.641159609,"(41.938053864882036, -87.6411596089399)"
SR22-00257287,Lead Inspection Request,HDF,311 City Services,Health,Completed,Phone Call,02/16/2022 04:31:08 PM,02/17/2022 11:33:45 AM,02/17/2022 11:33:45 AM,10146 S NORMAL AVE,,,60628,10146,S,NORMAL,AVE,false,false,,,73,9,,O046,3,22,2232,27,,16,4,2,1174731.589168,1837412.735277,41.709254817,-87.635725348,"(41.7092548165248, -87.6357253483474)"
SR22-00256724,Lead Inspection Request,HDF,311 City Services,Health,Completed,Phone Call,02/16/2022 03:32:10 PM,02/17/2022 11:35:35 AM,02/17/2022 11:35:35 AM,9555 S CHAPPEL AVE,,,60617,9555,S,CHAPPEL,AVE,false,false,,,51,7,,V045,3,04,0431,39,,15,4,2,1191598.776887,1841783.14434,41.720856092,-87.573815308,"(41.720856092470946, -87.57381530770812)"
SR22-00256499,Lead Inspection Request,HDF,311 City Services,Health,Completed,Phone Call,02/16/2022 03:07:04 PM,03/01/2022 11:07:57 AM,03/01/2022 11:07:57 AM,3929 N KEELER AVE,,,60641,3929,N,KEELER,AVE,false,false,,,16,45,,F013,3,17,1731,4,,15,4,2,1147892.931152,1925926.716904,41.952704095,-87.731742775,"(41.952704094735715, -87.7317427748963)"
SR22-00256382,Lead Inspection Request,HDF,311 City Services,Health,Completed,Phone Call,02/16/2022 02:53:14 PM,02/17/2022 11:37:11 AM,02/17/2022 11:37:11 AM,1533 W WARREN BLVD,,,60607,1533,W,WARREN,BLVD,false,false,,,28,27,,M022,2,12,1224,27,,14,4,2,1165808.134075,1900340.766274,41.882130686,-87.666616843,"(41.88213068632004, -87.66661684317823)"
SR22-00255162,Lead Inspection Request,HDF,311 City Services,Health,Completed,Phone Call,02/16/2022 12:48:22 PM,02/17/2022 01:58:00 PM,02/17/2022 01:58:00 PM,6829 S ROCKWELL ST,,,60629,6829,S,ROCKWELL,ST,false,false,,,66,17,,J038,3,08,0832,8,,12,4,2,1160296.508767,1859142.916589,41.769194655,-87.687991837,"(41.769194655084846, -87.68799183673892)"
SR22-00254026,Lead Inspection Request,HDF,,Health,Completed,Internet,02/16/2022 10:47:17 AM,02/17/2022 01:52:16 PM,02/17/2022 01:52:16 PM,3739 W 63RD ST,,,60629,3739,W,63RD,ST,false,false,,,65,23,,G037,2,08,0823,32,,10,4,2,1152358.071095,1862481.956991,41.778517276,-87.717003013,"(41.77851727608877, -87.71700301260404)"
SR22-00241425,Lead Inspection Request,HDF,Alderman,Health,Completed,Alderman's Office,02/14/2022 10:29:16 AM,02/15/2022 10:11:00 AM,02/15/2022 10:11:00 AM,2800 W FITCH AVE,,,60645,2800,W,FITCH,AVE,false,false,,,2,50,,I005,1,24,2411,33,,10,2,2,1156393.788933,1947369.596956,42.011376424,-87.699910151,"(42.01137642385145, -87.69991015050697)"
SR22-00212962,Lead Inspection Request,HDF,,Health,Completed,Internet,02/08/2022 07:25:19 PM,02/09/2022 09:40:01 AM,02/09/2022 09:40:01 AM,7038 S PRAIRIE AVE,,,60637,7038,S,PRAIRIE,AVE,false,false,,,69,6,,Q038,2,03,0322,11,,19,3,2,1179183.746481,1858247.035619,41.766326521,-87.618787633,"(41.76632652098962, -87.61878763313952)"
SR22-00210135,Lead Inspection Request,HDF,311 City Services,Health,Completed,Phone Call,02/08/2022 12:53:48 PM,03/01/2022 11:12:34 AM,03/01/2022 11:12:34 AM,3035 W WARREN BLVD,,,60612,3035,W,WARREN,BLVD,false,false,,,27,27,,I022,2,12,1222,49,,12,3,2,1155992.346855,1900121.994923,41.881733956,-87.702666365,"(41.88173395560607, -87.70266636494563)"
SR22-00198539,Lead Inspection Request,HDF,,Health,Completed,Internet,02/06/2022 02:10:40 PM,02/15/2022 01:15:58 PM,02/15/2022 01:15:58 PM,1848 W FARWELL AVE,,,60626,1848,W,FARWELL,AVE,false,false,,,1,49,,L005,2,24,2424,10,,14,1,2,1162461.892495,1945720.786879,42.00672667,-87.6776295,"(42.00672666984375, -87.67762950003538)"
SR22-00178629,Lead Inspection Request,HDF,,Health,Completed,Internet,02/02/2022 05:56:25 PM,02/03/2022 09:57:29 AM,02/03/2022 09:57:29 AM,3430 N LAKE SHORE DR,,,60657,3430,N,LAKE SHORE,DR,false,false,,,6,44,,O014,2,19,1925,12,,17,4,2,1172450.430012,1923001.227037,41.944167938,-87.641555382,"(41.9441679376877, -87.64155538152896)"
SR22-00172826,Lead Inspection Request,HDF,311 City Services,Health,Completed,Phone Call,02/01/2022 04:26:16 PM,02/03/2022 09:41:53 AM,02/03/2022 09:41:53 AM,720 N HOMAN AVE,,,60624,720,N,HOMAN,AVE,false,false,,,23,27,,H021,2,11,1121,5,,16,3,2,1153496.645004,1904722.965419,41.894409443,-87.711708178,"(41.89440944308796, -87.71170817816433)"
SR22-00153802,Lead Inspection Request,HDF,,Health,Completed,Internet,01/28/2022 05:28:18 PM,02/03/2022 09:28:56 AM,02/03/2022 09:28:56 AM,2337 N SAWYER AVE,,,60647,2337,N,SAWYER,AVE,false,false,,,22,32,,H017,1,14,1413,12,,17,6,1,1154206.015982,1915507.195199,41.923988198,-87.708814479,"(41.92398819754478, -87.70881447928781)"
SR22-00152857,Lead Inspection Request,HDF,311 City Services,Health,Completed,Phone Call,01/28/2022 02:44:47 PM,01/31/2022 10:28:31 AM,01/31/2022 10:28:31 AM,2224 S HAMLIN AVE,,,60623,2224,S,HAMLIN,AVE,false,false,,,30,22,,G027,1,10,1013,19,,14,6,1,1151361.941751,1888810.004572,41.850784666,-87.719965986,"(41.85078466570005, -87.71996598581892)"
SR22-00141786,Lead Inspection Request,HDF,,Health,Completed,Internet,01/26/2022 05:38:01 PM,01/28/2022 09:42:16 AM,01/28/2022 09:42:16 AM,6943 S WOODLAWN AVE,,,60637,6943,S,WOODLAWN,AVE,false,false,,,69,5,,T038,2,03,0321,30,,17,4,1,1185690.497905,1859134.838712,41.768611929,-87.594910343,"(41.76861192874692, -87.59491034283153)"
SR22-00119394,Lead Inspection Request,HDF,,Health,Completed,Internet,01/22/2022 08:12:57 PM,01/24/2022 10:29:40 AM,01/24/2022 10:29:40 AM,6135 N ST LOUIS AVE,,,60659,6135,N,ST LOUIS,AVE,false,false,,,13,50,,H007,1,17,1711,25,,20,7,1,1152006.751233,1940666.95376,41.993071988,-87.716229753,"(41.9930719883039, -87.71622975347778)"
SR22-00117553,Lead Inspection Request,HDF,311 City Services,Health,Completed,Phone Call,01/22/2022 12:06:08 PM,01/24/2022 10:19:56 AM,01/24/2022 10:19:56 AM,7649 S WABASH AVE,,,60619,7649,S,WABASH,AVE,false,false,,,69,6,,Q040,2,06,0623,16,,12,7,1,1178152.395294,1854120.538712,41.7550264,-87.622692835,"(41.75502640022742, -87.62269283529827)"
SR22-00115309,Lead Inspection Request,HDF,,Health,Completed,Internet,01/21/2022 07:12:46 PM,01/24/2022 09:45:27 AM,01/24/2022 09:45:27 AM,1458 S CANAL ST,,,60607,1458,S,CANAL,ST,false,false,,,28,11,,O025,2,01,0124,2,,19,6,1,1173128.011414,1893072.134884,41.86202587,-87.639954066,"(41.86202587007655, -87.63995406627043)"
SR22-00110965,Lead Inspection Request,HDF,,Health,Completed,Internet,01/21/2022 08:49:52 AM,01/21/2022 10:18:45 AM,01/21/2022 10:18:45 AM,9607 S AVALON AVE,,,60628,9607,S,AVALON,AVE,false,false,,,50,8,,T045,1,05,0511,34,,8,6,1,1186307.520302,1841462.650059,41.720103086,-87.593205832,"(41.720103085688315, -87.59320583215583)"
SR22-00106001,Lead Inspection Request,HDF,,Health,Completed,Internet,01/20/2022 10:38:31 AM,01/21/2022 10:26:08 AM,01/21/2022 10:26:08 AM,5105 W HENDERSON ST,,,60641,5105,W,HENDERSON,ST,false,false,,,15,31,,D014,3,16,1634,33,,10,5,1,1141689.691708,1921712.825131,41.941258003,-87.754651031,"(41.94125800278358, -87.7546510314069)"
SR22-00096516,Lead Inspection Request,HDF,,Health,Completed,Internet,01/18/2022 05:01:32 PM,01/19/2022 09:16:38 AM,01/19/2022 09:16:38 AM,4041 W ROOSEVELT RD,,,60623,4041,W,ROOSEVELT,RD,false,false,,,29,24,,F025,1,10,1011,22,,17,3,1,1149420.513634,1894319.508456,41.865941253,-87.72694867,"(41.865941252789, -87.72694867016804)"
SR22-00077383,Lead Inspection Request,HDF,,Health,Completed,Internet,01/14/2022 12:51:35 PM,01/20/2022 05:01:49 PM,01/20/2022 05:01:49 PM,1549 W JONQUIL TER,,,60626,1549,W,JONQUIL,TER,false,false,,,1,49,,M003,2,24,2422,32,,12,6,1,1164435.026109,1950964.987656,42.021075153,-87.670220589,"(42.02107515347755, -87.67022058874423)"
SR22-00063175,Lead Inspection Request,HDF,,Health,Completed,Mobile Device,01/12/2022 09:47:45 AM,01/12/2022 10:49:59 AM,01/12/2022 10:49:59 AM,9153 S MERRILL AVE,,,60617,9153,S,MERRILL,AVE,false,false,,,48,7,,V044,1,04,0413,32,,9,4,1,1192189.771395,1844485.522088,41.728257353,-87.571563073,"(41.728257353229864, -87.5715630730574)"
SR22-00052390,Lead Inspection Request,HDF,311 City Services,Health,Completed,Phone Call,01/10/2022 02:14:35 PM,01/11/2022 10:41:52 AM,01/11/2022 10:41:52 AM,326 E 87TH ST,,,60619,326,E,87TH,ST,false,false,,,44,6,,Q042,3,06,0632,31,,14,2,1,1179872.392475,1847452.038432,41.736688106,-87.616593129,"(41.73668810579874, -87.61659312917212)"
SR22-00050738,Lead Inspection Request,HDF,,Health,Completed,Internet,01/10/2022 11:55:20 AM,01/19/2022 09:19:05 AM,01/19/2022 09:19:05 AM,2201 W CORTEZ ST,,,60622,2201,W,CORTEZ,ST,false,false,,,24,2,,K020,1,12,1212,17,,11,2,1,1161498.370215,1906880.159825,41.900166114,-87.682260067,"(41.90016611447142, -87.68226006663771)"
SR22-00040720,Lead Inspection Request,HDF,311 City Services,Health,Completed,Phone Call,01/08/2022 04:12:11 PM,01/11/2022 03:44:12 PM,01/11/2022 03:44:12 PM,8024 S COLFAX AVE,,,60617,8024,S,COLFAX,AVE,false,false,,,46,7,,W041,2,04,0422,19,,16,7,1,1194834.985485,1852134.675543,41.749182631,-87.561622054,"(41.74918263097067, -87.56162205368909)"
SR22-00040301,Lead Inspection Request,HDF,,Health,Completed,Mobile Device,01/08/2022 02:42:05 PM,01/20/2022 05:08:46 PM,01/20/2022 05:08:46 PM,7706 N MARSHFIELD AVE,,,60626,7706,N,MARSHFIELD,AVE,true,false,,SR22-00014742,1,49,,L003,2,24,2422,1,,14,7,1,1163918.016689,1951094.742798,42.021442179,-87.67211948,"(42.021442179327394, -87.6721194803557)"
SR22-00036890,Lead Inspection Request,HDF,311 City Services,Health,Completed,Phone Call,01/07/2022 04:38:00 PM,01/11/2022 03:37:55 PM,01/11/2022 03:37:55 PM,3300 W MARQUETTE RD,,,60629,3300,W,MARQUETTE,RD,false,false,,,66,17,,H037,3,08,0831,12,,16,6,1,1155477.351143,1860028.775122,41.771723455,-87.705633065,"(41.77172345473764, -87.70563306455193)"
SR22-00017218,Lead Inspection Request,HDF,,Health,Completed,Internet,01/04/2022 02:14:03 PM,01/18/2022 12:41:13 PM,01/18/2022 12:41:13 PM,5716 S CAMPBELL AVE,,,60629,5716,S,CAMPBELL,AVE,false,false,,,63,16,,J035,2,08,0824,23,,14,3,1,1160611.963894,1866594.735065,41.789636983,-87.686630096,"(41.78963698328805, -87.68663009619245)"
SR22-00017192,Lead Inspection Request,HDF,,Health,Completed,Internet,01/04/2022 02:11:23 PM,01/05/2022 01:28:32 PM,01/05/2022 01:28:32 PM,2757 N PINE GROVE AVE,,,60614,2757,N,PINE GROVE,AVE,false,false,,,7,43,,O016,3,19,1935,13,,14,3,1,1172621.642374,1918785.843763,41.932596974,-87.641051207,"(41.932596974112876, -87.6410512071274)"
SR22-00014899,Lead Inspection Request,HDF,,Health,Completed,Mobile Device,01/04/2022 10:01:45 AM,01/05/2022 01:12:48 PM,01/05/2022 01:12:48 PM,9153 S MERRILL AVE,,,60617,9153,S,MERRILL,AVE,true,false,,SR22-00010493,48,7,,V044,1,04,0413,32,,10,3,1,1192189.771395,1844485.522088,41.728257353,-87.571563073,"(41.728257353229864, -87.5715630730574)"
SR22-00014742,Lead Inspection Request,HDF,311 City Services,Health,Completed,Phone Call,01/04/2022 09:45:22 AM,01/20/2022 05:08:46 PM,01/20/2022 05:08:46 PM,7706 N MARSHFIELD AVE,,,60626,7706,N,MARSHFIELD,AVE,false,false,,,1,49,,L003,2,24,2422,1,,9,3,1,1163918.016689,1951094.742798,42.021442179,-87.67211948,"(42.021442179327394, -87.6721194803557)"
SR22-00010493,Lead Inspection Request,HDF,311 City Services,Health,Completed,Phone Call,01/03/2022 01:52:29 PM,01/05/2022 01:12:48 PM,01/05/2022 01:12:48 PM,9153 S MERRILL AVE,,,60617,9153,S,MERRILL,AVE,false,false,,,48,7,,V044,1,04,0413,32,,13,2,1,1192189.771395,1844485.522088,41.728257353,-87.571563073,"(41.728257353229864, -87.5715630730574)"
SR22-00009553,Lead Inspection Request,HDF,311 City Services,Health,Completed,Phone Call,01/03/2022 12:07:14 PM,01/07/2022 09:23:12 AM,01/07/2022 09:23:12 AM,5426 S ASHLAND AVE,,,60609,5426,S,ASHLAND,AVE,false,false,,,61,16,,L034,3,09,0932,12,,12,2,1,1166492.517313,1868611.57055,41.795048018,-87.665010347,"(41.79504801837382, -87.66501034713589)"
SR22-00009199,Lead Inspection Request,HDF,Alderman,Health,Completed,Alderman's Office,01/03/2022 11:29:01 AM,01/05/2022 01:08:38 PM,01/05/2022 01:08:38 PM,3747 W SUNNYSIDE AVE,,,60625,3747,W,SUNNYSIDE,AVE,false,false,,,14,35,,G011,2,17,1723,22,,11,2,1,1150424.29973,1929610.253837,41.962762852,-87.722340728,"(41.96276285160133, -87.72234072762937)"
SR22-00001990,Lead Inspection Request,HDF,,Health,Completed,Internet,01/01/2022 04:14:09 PM,01/05/2022 01:05:53 PM,01/05/2022 01:05:53 PM,1432 W ROSEMONT AVE,,,60660,1432,W,ROSEMONT,AVE,false,false,,,77,48,,M007,3,24,2433,20,,16,7,1,1165453.389149,1942092.809597,41.996708023,-87.666727273,"(41.9967080226781, -87.66672727311905)"
